{"nodes": [{"city": "", "name": "Asia Pacific Advanced Network - Japan", "country": "JP", "region": "", "number": 5, "longitude": "139.69000", "nodeIndices": [0, 1, 2, 3, 29], "AS": 7660, "latitude": "35.69000"}, {"city": "", "name": "KDDI CORPORATION", "country": "JP", "region": "", "number": 3, "longitude": "139.69000", "nodeIndices": [4, 30, 37], "AS": 2516, "latitude": "35.69000"}, {"city": "", "name": "NTT Communications Corporation", "country": "JP", "region": "", "number": 3, "longitude": "139.69000", "nodeIndices": [5, 32, 33], "AS": 4713, "latitude": "35.69000"}, {"city": "", "name": "NTT America, Inc.", "country": "", "region": "", "number": 2, "longitude": "139.69000", "nodeIndices": [6, 34], "AS": 2914, "latitude": "35.69000"}, {"city": "Englewood", "name": "NTT America, Inc.", "country": "US", "region": "Colorado", "number": 3, "longitude": "-104.87380", "nodeIndices": [7, 8, 39], "AS": 2914, "latitude": "39.62370"}, {"city": "Tokyo", "name": "NTT America, Inc.", "country": "JP", "region": "Tokyo", "number": 2, "longitude": "139.76770", "nodeIndices": [9, 35], "AS": 2914, "latitude": "35.64270"}, {"city": "Ashburn", "name": "MCI Communications Services, Inc. d/b/a Verizon Business", "country": "US", "region": "Virginia", "number": 8, "longitude": "-77.53900", "nodeIndices": [10, 36, 106, 186, 239, 249, 271, 327], "AS": 15133, "latitude": "39.01800"}, {"city": "Singapore", "name": "MCI Communications Services, Inc. d/b/a Verizon Business", "country": "Singapore", "region": "Singapore", "number": 1, "longitude": "103.85010", "nodeIndices": [11], "AS": 15133, "latitude": "1.28970"}, {"city": "Singapore", "name": "Computer Centre", "country": "SG", "region": "Central Singapore Community Development Council", "number": 2, "longitude": "103.85580", "nodeIndices": [12, 13], "AS": 7472, "latitude": "1.29310"}, {"city": "Medway Park", "name": "Computer Centre", "country": "SG", "region": "SINGAPORE", "number": 1, "longitude": "103.80000", "nodeIndices": [14], "AS": 7472, "latitude": "1.36670"}, {"city": "Singapore", "name": "NUS Gigapop", "country": "SG", "region": "Central Singapore Community Development Council", "number": 1, "longitude": "103.85580", "nodeIndices": [15], "AS": 7610, "latitude": "1.29310"}, {"city": "Singapore", "name": "NUS Gigapop", "country": "SG", "region": "Central Singapore Community Development Council", "number": 1, "longitude": "103.85650", "nodeIndices": [16], "AS": 7610, "latitude": "1.28550"}, {"city": "Beijing", "name": "China Education and Research Network Center", "country": "CN", "region": "Beijing", "number": 11, "longitude": "116.38830", "nodeIndices": [17, 18, 19, 20, 21, 22, 23, 24, 25, 26, 27], "AS": 4538, "latitude": "39.92890"}, {"city": "", "name": "Pacnet Global Ltd", "country": "JP", "region": "", "number": 1, "longitude": "139.69000", "nodeIndices": [28], "AS": 10026, "latitude": "35.69000"}, {"city": "Sano", "name": "KDDI CORPORATION", "country": "JP", "region": "Tochigi", "number": 2, "longitude": "139.58330", "nodeIndices": [31, 38], "AS": 2516, "latitude": "36.31670"}, {"city": "Nanjing", "name": "No.31,Jin-rong Street", "country": "CN", "region": "Jiangsu", "number": 6, "longitude": "118.77780", "nodeIndices": [40, 41, 42, 43, 44, 94], "AS": 4134, "latitude": "32.06170"}, {"city": "", "name": "No.31,Jin-rong Street", "country": "CN", "region": "", "number": 7, "longitude": "113.72660", "nodeIndices": [45, 46, 47, 48, 49, 95, 96], "AS": 4134, "latitude": "34.77250"}, {"city": "Athens", "name": "Beyond The Network America, Inc.", "country": "GR", "region": "Attica", "number": 4, "longitude": "23.73330", "nodeIndices": [50, 51, 98, 99], "AS": 3491, "latitude": "37.98330"}, {"city": "Dunedin", "name": "The University of Otago", "country": "NZ", "region": "Otago", "number": 4, "longitude": "170.51190", "nodeIndices": [52, 53, 54, 55], "AS": 38305, "latitude": "-45.87140"}, {"city": "Nelson", "name": "REANNZ National Research and Education Network", "country": "NZ", "region": "Nelson", "number": 2, "longitude": "173.33570", "nodeIndices": [56, 92], "AS": 38022, "latitude": "-41.28810"}, {"city": "Auckland", "name": "New Zealand Auckland Internet Exchange", "country": "New Zealand", "region": "Auckland", "number": 2, "longitude": "174.76670", "nodeIndices": [57, 58], "AS": 18119, "latitude": "-36.86670"}, {"city": "Perth", "name": "Vocus Connect International Backbone", "country": "AU", "region": "Western Australia", "number": 2, "longitude": "115.86210", "nodeIndices": [59, 63], "AS": 4826, "latitude": "-31.96740"}, {"city": "Perth", "name": "Vocus Connect International Backbone", "country": "AU", "region": "Western Australia", "number": 4, "longitude": "115.86140", "nodeIndices": [60, 62, 64, 65], "AS": 4826, "latitude": "-31.95220"}, {"city": "Padstow", "name": "Vocus Connect International Backbone", "country": "AU", "region": "New South Wales", "number": 1, "longitude": "151.03330", "nodeIndices": [61], "AS": 4826, "latitude": "-33.95000"}, {"city": "Chengdu", "name": "China Education and Research Network Center", "country": "CN", "region": "Sichuan", "number": 3, "longitude": "104.06670", "nodeIndices": [66, 67, 93], "AS": 4538, "latitude": "30.66670"}, {"city": "Clayton North", "name": "Monash University,", "country": "AU", "region": "Victoria", "number": 3, "longitude": "145.11670", "nodeIndices": [68, 69, 77], "AS": 56132, "latitude": "-37.91670"}, {"city": "Monash", "name": "Monash University,", "country": "AU", "region": "South Australia", "number": 1, "longitude": "140.56670", "nodeIndices": [70], "AS": 56132, "latitude": "-34.23330"}, {"city": "Armadale North", "name": "Australian Academic and Reasearch Network (AARNet)", "country": "AU", "region": "Victoria", "number": 1, "longitude": "145.11670", "nodeIndices": [71], "AS": 7575, "latitude": "-37.91670"}, {"city": "Canberra", "name": "Australian Academic and Reasearch Network (AARNet)", "country": "AU", "region": "Australian Capital Territory", "number": 1, "longitude": "149.13440", "nodeIndices": [72], "AS": 7575, "latitude": "-35.27600"}, {"city": "Belbourne", "name": "Western Australian Internet Association", "country": "Australia", "region": "Victoria", "number": 1, "longitude": "144.96330", "nodeIndices": [73], "AS": 7606, "latitude": "-37.81400"}, {"city": "Melbourne", "name": "Vocus Connect International Backbone", "country": "AU", "region": "Victoria", "number": 2, "longitude": "144.95440", "nodeIndices": [74, 75], "AS": 4826, "latitude": "-37.81030"}, {"city": "", "name": "Vocus Connect International Backbone", "country": "AU", "region": "Victoria", "number": 1, "longitude": "144.96340", "nodeIndices": [76], "AS": 4826, "latitude": "-37.81390"}, {"city": "Hiroshima", "name": "Hiroshima City University", "country": "Japan", "region": "Hiroshima", "number": 4, "longitude": "132.45940", "nodeIndices": [78, 79, 80, 81], "AS": 2506, "latitude": "34.39630"}, {"city": "Tokyo", "name": "NTT WEST CHUGOKU CORPORATION", "country": "Japan", "region": "Tokyo", "number": 1, "longitude": "139.69000", "nodeIndices": [82], "AS": 2506, "latitude": "35.69000"}, {"city": "Tokyo", "name": "Research Organization of Information and Systems, National Institute of Informatics", "country": "Japan", "region": "Tokyo", "number": 3, "longitude": "139.69000", "nodeIndices": [83, 84, 85], "AS": 2907, "latitude": "35.69000"}, {"city": "Tokyo", "name": "Japan Internet Exchange Co., Ltd.", "country": "Japan", "region": "Tokyo", "number": 1, "longitude": "139.69000", "nodeIndices": [86], "AS": 7527, "latitude": "35.69000"}, {"city": "", "name": "Telstra Global", "country": "", "region": "", "number": 1, "longitude": "105.00000", "nodeIndices": [87], "AS": 4637, "latitude": "35.00000"}, {"city": "Tokyo", "name": "Telstra Global", "country": "Japan", "region": "Tokyo", "number": 1, "longitude": "139.69170", "nodeIndices": [88], "AS": 4637, "latitude": "35.68950"}, {"city": "Brookvale", "name": "Telstra Global", "country": "Australia", "region": "New South Wales", "number": 1, "longitude": "151.26670", "nodeIndices": [89], "AS": 4637, "latitude": "-33.76670"}, {"city": "Wellington", "name": "Victoria University of Wellington", "country": "NZ", "region": "Wellington", "number": 2, "longitude": "174.78310", "nodeIndices": [90, 91], "AS": 23905, "latitude": "-41.29420"}, {"city": "Shanghai", "name": "ChinaNet Backbone Network", "country": "China", "region": "Shanghai", "number": 1, "longitude": "121.45810", "nodeIndices": [97], "AS": 4134, "latitude": "31.22220"}, {"city": "Seattle", "name": "University of Washington", "country": "US", "region": "Washington", "number": 5, "longitude": "-122.29190", "nodeIndices": [100, 101, 102, 143, 150], "AS": 73, "latitude": "47.66060"}, {"city": "Seattle", "name": "University of Washington", "country": "US", "region": "Washington", "number": 2, "longitude": "-122.34220", "nodeIndices": [103, 154], "AS": 101, "latitude": "47.63440"}, {"city": "Seatle", "name": "Seattle Internet Exchange Inc.", "country": "United States", "region": "Washington", "number": 1, "longitude": "-123.33330", "nodeIndices": [104], "AS": 33108, "latitude": "47.61170"}, {"city": "Seatle", "name": "Seattle Internet Exchange Inc.", "country": "United States", "region": "Washington", "number": 1, "longitude": "-122.33330", "nodeIndices": [105], "AS": 33108, "latitude": "47.61170"}, {"city": "Los Angeles", "name": "University of Southern California", "country": "US", "region": "California", "number": 1, "longitude": "-118.24400", "nodeIndices": [107], "AS": 4, "latitude": "34.05440"}, {"city": "Los Angeles", "name": "University of Southern California", "country": "United States", "region": "California", "number": 2, "longitude": "-118.24370", "nodeIndices": [108, 145], "AS": 4, "latitude": "34.05220"}, {"city": "Los Angeles", "name": "University of Southern California", "country": "United States", "region": "California", "number": 1, "longitude": "-118.45170", "nodeIndices": [109], "AS": 4, "latitude": "33.98030"}, {"city": "Los Angeles", "name": "Los Nettos", "country": "US", "region": "California", "number": 1, "longitude": "-118.24370", "nodeIndices": [110], "AS": 226, "latitude": "34.05220"}, {"city": "Fremont", "name": "Hurricane Electric, Inc.", "country": "US", "region": "California", "number": 2, "longitude": "-121.89620", "nodeIndices": [111, 112], "AS": 6939, "latitude": "37.51550"}, {"city": "San Luis Obispo", "name": "California Polytechnic State University", "country": "US", "region": "California", "number": 2, "longitude": "-120.45530", "nodeIndices": [113, 114], "AS": 46357, "latitude": "35.34710"}, {"city": "San Luis Obispo", "name": "Digital West Networks, Inc.", "country": "US", "region": "California", "number": 2, "longitude": "-120.62140", "nodeIndices": [115, 116], "AS": 14589, "latitude": "35.25650"}, {"city": "Redwood City", "name": "Equinix, Inc.", "country": "US", "region": "California", "number": 1, "longitude": "-122.24710", "nodeIndices": [117], "AS": 32007, "latitude": "37.53310"}, {"city": "Los Angeles", "name": "University of California, Los Angeles", "country": "United States", "region": "California", "number": 6, "longitude": "-118.29870", "nodeIndices": [118, 119, 120, 121, 122, 144], "AS": 52, "latitude": "33.78660"}, {"city": "Parlier", "name": "California State University, Office of the Chancellor", "country": "United States", "region": "California", "number": 1, "longitude": "-118.03770", "nodeIndices": [123], "AS": 2152, "latitude": "33.81880"}, {"city": "Marina del Rey", "name": "California State University, Office of the Chancellor", "country": "United States", "region": "California", "number": 1, "longitude": "-118.45170", "nodeIndices": [124], "AS": 2152, "latitude": "33.98030"}, {"city": "San Jose", "name": "MCI Communications Services, Inc. d/b/a Verizon Business", "country": "United States", "region": "California", "number": 1, "longitude": "-121.89500", "nodeIndices": [125], "AS": 15133, "latitude": "37.33940"}, {"city": "Reno", "name": "Nevada System of Higher Education", "country": "US", "region": "Nevada", "number": 3, "longitude": "-119.81380", "nodeIndices": [126, 127, 128], "AS": 3851, "latitude": "39.52960"}, {"city": "Empire", "name": "Nevada System of Higher Education", "country": "US", "region": "Nevada", "number": 2, "longitude": "-119.58690", "nodeIndices": [129, 130], "AS": 3851, "latitude": "40.54120"}, {"city": "Vancouver", "name": "University of British Columbia", "country": "CA", "region": "British Columbia", "number": 4, "longitude": "-122.82200", "nodeIndices": [131, 132, 133, 134], "AS": 393249, "latitude": "49.46350"}, {"city": "Vancouver", "name": "BCnet", "country": "CA", "region": "British Columbia", "number": 1, "longitude": "-123.11390", "nodeIndices": [135], "AS": 271, "latitude": "49.27880"}, {"city": "Fremont", "name": "Hurricane Electric, Inc.", "country": "US", "region": "California", "number": 1, "longitude": "-121.96210", "nodeIndices": [136], "AS": 6939, "latitude": "37.54970"}, {"city": "Fremont", "name": "Hurricane Electric, Inc.", "country": "US", "region": "California", "number": 1, "longitude": "-121.98860", "nodeIndices": [137], "AS": 6939, "latitude": "37.54830"}, {"city": "Seattle", "name": "MCI Communications Services, Inc. d/b/a Verizon Business", "country": "US", "region": "Washington", "number": 1, "longitude": "-122.33210", "nodeIndices": [138], "AS": 15133, "latitude": "47.60620"}, {"city": "Eugene", "name": "University of Oregon", "country": "US", "region": "Oregon", "number": 7, "longitude": "-123.05470", "nodeIndices": [139, 140, 141, 146, 147, 148, 155], "AS": 3582, "latitude": "44.03640"}, {"city": "Corvallis", "name": "EP.net LLC.", "country": "United States", "region": "Oregon", "number": 1, "longitude": "-123.26200", "nodeIndices": [142], "AS": 11537, "latitude": "44.56160"}, {"city": "Corvallis", "name": "EP.net LLC.", "country": "United States", "region": "Oregon", "number": 1, "longitude": "-123.26200", "nodeIndices": [149], "AS": 11537, "latitude": "44.56460"}, {"city": "Bozeman", "name": "Montana State University", "country": "US", "region": "Montana", "number": 2, "longitude": "-111.03900", "nodeIndices": [151, 152], "AS": 13476, "latitude": "45.67970"}, {"city": "Bozeman", "name": "Montana State University", "country": "US", "region": "Montana", "number": 1, "longitude": "-110.90130", "nodeIndices": [153], "AS": 13476, "latitude": "45.62800"}, {"city": "Warsaw", "name": "Politechnika Warszawska", "country": "PL", "region": "Masovian Voivodeship", "number": 2, "longitude": "21.01180", "nodeIndices": [156, 157], "AS": 12464, "latitude": "52.22980"}, {"city": "", "name": "Politechnika Warszawska", "country": "PL", "region": "", "number": 2, "longitude": "21.01670", "nodeIndices": [158, 159], "AS": 12464, "latitude": "52.23330"}, {"city": "Kolo", "name": "NAUKOWA I AKADEMICKA SIEC KOMPUTEROWA INSTYTUT BADAWCZY", "country": "PL", "region": "Mazowieckie", "number": 1, "longitude": "20.94900", "nodeIndices": [160], "AS": 1887, "latitude": "52.24570"}, {"city": "Lodz", "name": "Institute of Bioorganic Chemistry Polish Academy of Science, Poznan Supercomputing and Networking Center", "country": "PL", "region": "Greater Poland Voivodeship", "number": 1, "longitude": "16.74240", "nodeIndices": [161], "AS": 8501, "latitude": "52.25550"}, {"city": "", "name": "GEANT Limited", "country": "GB", "region": "", "number": 1, "longitude": "-0.12240", "nodeIndices": [162], "AS": 21320, "latitude": "51.49640"}, {"city": "Frankfurt Am Main", "name": "GEANT Limited", "country": "Germany", "region": "Hessen", "number": 1, "longitude": "8.68420", "nodeIndices": [163], "AS": 20965, "latitude": "50.11550"}, {"city": "Frankfurt Am Main", "name": "MCI Communications Services, Inc. d/b/a Verizon Business", "country": "Germany", "region": "Hessen", "number": 1, "longitude": "8.68330", "nodeIndices": [164], "AS": 15133, "latitude": "50.11670"}, {"city": "London", "name": "EdgeCast NetBlk", "country": "United Kingdom", "region": "England", "number": 1, "longitude": "-0.12570", "nodeIndices": [165], "AS": 15133, "latitude": "51.50850"}, {"city": "Liberec", "name": "CESNET z.s.p.o.", "country": "CZ", "region": "Liberecky kraj", "number": 4, "longitude": "15.06530", "nodeIndices": [166, 167, 170, 178], "AS": 2852, "latitude": "50.76390"}, {"city": "Liberec", "name": "CESNET z.s.p.o.", "country": "Czech Republic", "region": "Liberecky kraj", "number": 1, "longitude": "14.41120", "nodeIndices": [168], "AS": 2852, "latitude": "50.08480"}, {"city": "Prague", "name": "GEANT Limited", "country": "Czech Republic", "region": "Praha, hlavni mesto", "number": 1, "longitude": "14.42080", "nodeIndices": [169], "AS": 21320, "latitude": "50.08800"}, {"city": "Zurich", "name": "SWITCH", "country": "CH", "region": "Zurich", "number": 4, "longitude": "8.55000", "nodeIndices": [171, 172, 173, 174], "AS": 559, "latitude": "47.36670"}, {"city": "Zurich", "name": "Equinix (Switzerland) AG", "country": "Switzerland", "region": "Zurich", "number": 1, "longitude": "8.15510", "nodeIndices": [175], "AS": 8235, "latitude": "47.14490"}, {"city": "", "name": "Deutsche Telekom AG", "country": "DE", "region": "", "number": 1, "longitude": "9.49100", "nodeIndices": [176], "AS": 3320, "latitude": "51.29930"}, {"city": "Frankfurt", "name": "Deutsche Telekom AG", "country": "Germany", "region": "Bayern", "number": 1, "longitude": "10.53330", "nodeIndices": [177], "AS": 3320, "latitude": "49.68330"}, {"city": "Frankfurt Am Main", "name": "DE-CIX Management GmbH", "country": "Germany", "region": "Hessen", "number": 1, "longitude": "8.68330", "nodeIndices": [179], "AS": 51531, "latitude": "50.11670"}, {"city": "Denver", "name": "University Corporation for Atmospheric Research", "country": "US", "region": "Colorado", "number": 4, "longitude": "-104.98470", "nodeIndices": [180, 181, 182, 200], "AS": 14041, "latitude": "39.73920"}, {"city": "", "name": "University Corporation for Atmospheric Research", "country": "US", "region": "", "number": 2, "longitude": "-97.82200", "nodeIndices": [183, 187], "AS": 14041, "latitude": "37.75100"}, {"city": "Ann Arbor", "name": "Internet2", "country": "US", "region": "Michigan", "number": 8, "longitude": "-83.71330", "nodeIndices": [184, 237, 238, 253, 254, 325, 326, 352], "AS": 11164, "latitude": "42.27340"}, {"city": "Santa Monica", "name": "MCI Communications Services, Inc. d/b/a Verizon Business", "country": "US", "region": "California", "number": 6, "longitude": "-118.46820", "nodeIndices": [185, 196, 202, 211, 255, 256], "AS": 15133, "latitude": "34.01190"}, {"city": "Madison", "name": "University of Wisconsin Madison", "country": "US", "region": "Wisconsin", "number": 6, "longitude": "-89.40120", "nodeIndices": [188, 189, 190, 191, 192, 197], "AS": 59, "latitude": "43.07310"}, {"city": "Afton", "name": "University of Wisconsin System", "country": "US", "region": "Wisconsin", "number": 4, "longitude": "-89.40670", "nodeIndices": [193, 194, 198, 199], "AS": 3128, "latitude": "43.06110"}, {"city": "Middleton", "name": "WiscNet", "country": "US", "region": "Wisconsin", "number": 1, "longitude": "-89.52070", "nodeIndices": [195], "AS": 2381, "latitude": "43.11840"}, {"city": "Chicago", "name": "Equinix, Inc.", "country": "United States", "region": "Illinois", "number": 1, "longitude": "-87.65005", "nodeIndices": [201], "AS": 32007, "latitude": "41.85003"}, {"city": "West Lafayette", "name": "Purdue University", "country": "US", "region": "Indiana", "number": 4, "longitude": "-86.90810", "nodeIndices": [203, 204, 205, 208], "AS": 17, "latitude": "40.42590"}, {"city": "West Lafayette", "name": "Purdue University", "country": "United States", "region": "Indiana", "number": 3, "longitude": "-86.87740", "nodeIndices": [206, 209, 210], "AS": 17, "latitude": "40.36890"}, {"city": "Bloomington", "name": "Indiana University", "country": "United States", "region": "Indiana", "number": 3, "longitude": "-86.45550", "nodeIndices": [207, 228, 229], "AS": 19782, "latitude": "39.24990"}, {"city": "Richardson", "name": "University of Texas at Dallas", "country": "US", "region": "Texas", "number": 2, "longitude": "-96.72970", "nodeIndices": [212, 213], "AS": 20162, "latitude": "32.94820"}, {"city": "Santa Teresa", "name": "North Texas GigaPOP", "country": "US", "region": "New Mexico", "number": 1, "longitude": "-106.80820", "nodeIndices": [214], "AS": 22645, "latitude": "31.94600"}, {"city": "Hayfield", "name": "Hurricane Electric, Inc.", "country": "US", "region": "Minnesota", "number": 1, "longitude": "-92.79170", "nodeIndices": [215], "AS": 6939, "latitude": "43.89900"}, {"city": "", "name": "Hurricane Electric, Inc.", "country": "", "region": "", "number": 1, "longitude": "-97.09890", "nodeIndices": [216], "AS": 6939, "latitude": "31.62860"}, {"city": "Stillwater", "name": "Oklahoma Network for Education Enrichment and", "country": "United States", "region": "Oklahoma", "number": 4, "longitude": "-97.05840", "nodeIndices": [217, 218, 219, 220], "AS": 5078, "latitude": "36.11560"}, {"city": "Stillwater", "name": "Oklahoma Network for Education Enrichment and", "country": "United States", "region": "Oklahoma", "number": 1, "longitude": "-96.93980", "nodeIndices": [221], "AS": 5078, "latitude": "35.39810"}, {"city": "Stillwater", "name": "Oklahoma Network for Education Enrichment and", "country": "United States", "region": "Oklahoma", "number": 2, "longitude": "-97.50330", "nodeIndices": [222, 223], "AS": 5078, "latitude": "35.47620"}, {"city": "Edgar", "name": "WiscNet", "country": "US", "region": "Wisconsin", "number": 1, "longitude": "-90.01920", "nodeIndices": [224], "AS": 2381, "latitude": "44.90020"}, {"city": "Bloomington", "name": "Indiana University", "country": "US", "region": "Indiana", "number": 2, "longitude": "-86.61750", "nodeIndices": [225, 226], "AS": 87, "latitude": "39.07900"}, {"city": "Indianapolis", "name": "Indiana University", "country": "US", "region": "Indiana", "number": 1, "longitude": "-86.16650", "nodeIndices": [227], "AS": 87, "latitude": "39.78510"}, {"city": "Ann Arbor", "name": "University of Michigan", "country": "United States", "region": "Michigan", "number": 3, "longitude": "-83.71450", "nodeIndices": [230, 231, 240], "AS": 36375, "latitude": "42.29230"}, {"city": "Ann Arbor", "name": "University of Michigan", "country": "United States", "region": "Michigan", "number": 4, "longitude": "-83.71130", "nodeIndices": [232, 233, 234, 235], "AS": 36375, "latitude": "42.32410"}, {"city": "Ann Arbor", "name": "Merit Network Inc.", "country": "United States", "region": "Michigan", "number": 1, "longitude": "-83.71330", "nodeIndices": [236], "AS": 237, "latitude": "42.27340"}, {"city": "Pittsburgh", "name": "Comcast Cable Communications, LLC", "country": "US", "region": "Pennsylvania", "number": 2, "longitude": "-79.99590", "nodeIndices": [241, 242], "AS": 7922, "latitude": "40.44060"}, {"city": "", "name": "Comcast Cable Communications, LLC", "country": "", "region": "", "number": 2, "longitude": "-97.82200", "nodeIndices": [243, 244], "AS": 7922, "latitude": "37.75100"}, {"city": "Coatesville", "name": "Comcast Cable Communications, LLC", "country": "United States", "region": "Pennsylvania", "number": 1, "longitude": "-75.82670", "nodeIndices": [245], "AS": 7922, "latitude": "39.96830"}, {"city": "Chicago", "name": "Comcast Cable Communications, LLC", "country": "US", "region": "Illinois", "number": 1, "longitude": "-87.62980", "nodeIndices": [246], "AS": 7922, "latitude": "41.87810"}, {"city": "Chicago", "name": "Comcast Cable Communications, LLC", "country": "US", "region": "Illinois", "number": 1, "longitude": "-87.62310", "nodeIndices": [247], "AS": 7922, "latitude": "41.85290"}, {"city": "Ashburn", "name": "Comcast Cable Communications, LLC", "country": "US", "region": "Virginia", "number": 1, "longitude": "-77.48740", "nodeIndices": [248], "AS": 7922, "latitude": "39.04380"}, {"city": "", "name": "Northeastern University", "country": "", "region": "", "number": 2, "longitude": "-71.08780", "nodeIndices": [250, 251], "AS": 156, "latitude": "42.34240"}, {"city": "Hartford", "name": "Harvard University", "country": "US", "region": "Connecticut", "number": 1, "longitude": "-72.67450", "nodeIndices": [252], "AS": 10578, "latitude": "41.76860"}, {"city": "Ottawa", "name": "University of Ottawa", "country": "CA", "region": "Ontario", "number": 2, "longitude": "-75.68440", "nodeIndices": [257, 258], "AS": 25826, "latitude": "45.42890"}, {"city": "Kingston", "name": "ORANO", "country": "CA", "region": "Ontario", "number": 1, "longitude": "-77.55000", "nodeIndices": [259], "AS": 26677, "latitude": "44.30000"}, {"city": "Toronto", "name": "Cogent Communications", "country": "CA", "region": "Ontario", "number": 1, "longitude": "-79.39950", "nodeIndices": [260], "AS": 174, "latitude": "43.64040"}, {"city": "", "name": "Cogent Communications", "country": "US", "region": "", "number": 4, "longitude": "-97.82200", "nodeIndices": [261, 262, 263, 264], "AS": 174, "latitude": "37.75100"}, {"city": "", "name": "Telia Company AB", "country": "DE", "region": "", "number": 2, "longitude": "9.49100", "nodeIndices": [265, 277], "AS": 1299, "latitude": "51.29930"}, {"city": "Lowell", "name": "University of Massachusetts - Lowell", "country": "United States", "region": "Massachusetts", "number": 3, "longitude": "-71.35060", "nodeIndices": [266, 267, 307], "AS": 46905, "latitude": "42.65230"}, {"city": "Shrewsbury", "name": "University of Massachusettes", "country": "United States", "region": "Massachusetts", "number": 1, "longitude": "-71.72230", "nodeIndices": [268], "AS": 1968, "latitude": "42.28520"}, {"city": "Boston", "name": "Qwest Communications Company, LLC", "country": "United States", "region": "Massachusetts", "number": 1, "longitude": "-71.05980", "nodeIndices": [269], "AS": 209, "latitude": "42.35840"}, {"city": "Washington", "name": "Qwest Communications Company LLC", "country": "United States", "region": "District of Columbia", "number": 1, "longitude": "-77.03640", "nodeIndices": [270], "AS": 209, "latitude": "38.89510"}, {"city": "Atlanta", "name": "Emory University", "country": "US", "region": "Georgia", "number": 6, "longitude": "-84.32480", "nodeIndices": [272, 273, 274, 275, 279, 283], "AS": 3512, "latitude": "33.79520"}, {"city": "Atlanta", "name": "Cogent Communications", "country": "US", "region": "Georgia", "number": 1, "longitude": "-84.32440", "nodeIndices": [276], "AS": 174, "latitude": "33.82740"}, {"city": "", "name": "Telia Company AB", "country": "", "region": "", "number": 7, "longitude": "8.00000", "nodeIndices": [278, 280, 281, 282, 293, 294, 296], "AS": 1299, "latitude": "47.00000"}, {"city": "College Park", "name": "University of Maryland", "country": "US", "region": "Maryland", "number": 3, "longitude": "-76.93690", "nodeIndices": [284, 285, 289], "AS": 27, "latitude": "38.98070"}, {"city": "Takoma Park", "name": "University of Maryland", "country": "US", "region": "Maryland", "number": 1, "longitude": "-77.00400", "nodeIndices": [286], "AS": 27, "latitude": "38.98270"}, {"city": "College Park", "name": "University of Maryland", "country": "US", "region": "Maryland", "number": 2, "longitude": "-76.93170", "nodeIndices": [287, 288], "AS": 27, "latitude": "39.00120"}, {"city": "College Park", "name": "University of Maryland", "country": "US", "region": "Maryland", "number": 2, "longitude": "-76.93170", "nodeIndices": [290, 291], "AS": 10886, "latitude": "39.00120"}, {"city": "Stockholm", "name": "Telia Company AB", "country": "Sweden", "region": "Stockhoms Lan", "number": 1, "longitude": "18.06490", "nodeIndices": [292], "AS": 1299, "latitude": "59.33260"}, {"city": "Solna", "name": "Telia Company AB", "country": "Sweden", "region": "Stockholm", "number": 1, "longitude": "17.99890", "nodeIndices": [295], "AS": 1299, "latitude": "59.36250"}, {"city": "", "name": "Associa\u00e7\u00e3o Rede Nacional de Ensino e Pesquisa", "country": "BR", "region": "", "number": 7, "longitude": "-43.21920", "nodeIndices": [297, 298, 299, 300, 301, 302, 306], "AS": 1916, "latitude": "-22.83050"}, {"city": "Ashburn", "name": "MCI Communications Services Inc. d/b/a Verizon Business", "country": "United States", "region": "Virginia", "number": 1, "longitude": "-77.48850", "nodeIndices": [303], "AS": 15133, "latitude": "39.03410"}, {"city": "", "name": "Level 3 Communications, Inc.", "country": "BR", "region": "", "number": 1, "longitude": "-43.21920", "nodeIndices": [304], "AS": 3549, "latitude": "-22.83050"}, {"city": "Los Angeles", "name": "MCI Communications Services, Inc. d/b/a Verizon Business", "country": "US", "region": "California", "number": 1, "longitude": "-118.29870", "nodeIndices": [305], "AS": 15133, "latitude": "33.78660"}, {"city": "New Brunswick", "name": "Rutgers University", "country": "United States", "region": "New Jersey", "number": 3, "longitude": "-74.42890", "nodeIndices": [308, 309, 317], "AS": 46, "latitude": "40.50320"}, {"city": "Moscow", "name": "MCI Communications Services, Inc. d/b/a Verizon Business", "country": "United States", "region": "Pennsylvania", "number": 1, "longitude": "-75.53950", "nodeIndices": [310], "AS": 701, "latitude": "41.31200"}, {"city": "Philadelphia", "name": "MCI Communications Services, Inc. d/b/a Verizon Business", "country": "US", "region": "Pennsylvania", "number": 7, "longitude": "-75.19680", "nodeIndices": [311, 312, 313, 314, 315, 316, 318], "AS": 701, "latitude": "39.95970"}, {"city": "Waterloo", "name": "University of Waterloo", "country": "Canada", "region": "Ontario", "number": 3, "longitude": "-80.54540", "nodeIndices": [319, 320, 336], "AS": 12093, "latitude": "43.47150"}, {"city": "Oshawa", "name": "Allstream Corp.", "country": "Canada", "region": "Ontario", "number": 1, "longitude": "-78.84950", "nodeIndices": [321], "AS": 15290, "latitude": "43.90000"}, {"city": "Cleveland", "name": "Case Western Reserve University", "country": "US", "region": "Ohio", "number": 2, "longitude": "-81.60530", "nodeIndices": [322, 323], "AS": 32666, "latitude": "41.50740"}, {"city": "Avon", "name": "OARnet", "country": "US", "region": "Ohio", "number": 1, "longitude": "-82.01860", "nodeIndices": [324], "AS": 600, "latitude": "41.44850"}, {"city": "Providence", "name": "Brown University", "country": "US", "region": "Rhode Island", "number": 4, "longitude": "-71.39770", "nodeIndices": [328, 329, 330, 331], "AS": 11078, "latitude": "41.82670"}, {"city": "North Kingstown", "name": "Rhode Island Network for Educ. Technology", "country": "US", "region": "Rhode Island", "number": 1, "longitude": "-71.46230", "nodeIndices": [332], "AS": 14464, "latitude": "41.58770"}, {"city": "West Warwick", "name": "OSHEAN, Inc.", "country": "US", "region": "Rhode Island", "number": 1, "longitude": "-71.52540", "nodeIndices": [333], "AS": 14325, "latitude": "41.69700"}, {"city": "Stoneham", "name": "Level 3 Communications, Inc.", "country": "US", "region": "Massachusetts", "number": 1, "longitude": "-71.09820", "nodeIndices": [334], "AS": 3356, "latitude": "42.47300"}, {"city": "Boston", "name": "MCI Communications Services, Inc. d/b/a Verizon Business", "country": "US", "region": "Massachusetts", "number": 1, "longitude": "-71.05980", "nodeIndices": [335], "AS": 15133, "latitude": "42.35840"}, {"city": "Tampa", "name": "UNIVERSITY OF SOUTH FLORIDA", "country": "US", "region": "Florida", "number": 7, "longitude": "-82.41280", "nodeIndices": [337, 338, 339, 340, 343, 344, 345], "AS": 5661, "latitude": "28.06310"}, {"city": "Gainesville", "name": "FloridaNet", "country": "US", "region": "Florida", "number": 2, "longitude": "-82.32480", "nodeIndices": [341, 342], "AS": 11096, "latitude": "29.65160"}, {"city": "Pittsburgh", "name": "Carnegie Mellon University", "country": "US", "region": "Pennsylvania", "number": 8, "longitude": "-79.95610", "nodeIndices": [346, 347, 348, 349, 353, 354, 355, 356], "AS": 9, "latitude": "40.44390"}, {"city": "", "name": "KINBER", "country": "", "region": "", "number": 1, "longitude": "-79.71770", "nodeIndices": [350], "AS": 14877, "latitude": "40.31780"}, {"city": "", "name": "Pittsburgh Supercomputing Center", "country": "", "region": "", "number": 1, "longitude": "-79.95610", "nodeIndices": [351], "AS": 5050, "latitude": "40.44390"}], "links": [{"count": 1, "source": 1, "group": "inter", "target": 0}, {"count": 2, "source": 1, "group": "inter", "target": 2}, {"count": 3, "source": 1, "group": "inter", "target": 14}, {"count": 4, "source": 1, "group": "inter", "target": 14}, {"count": 1, "source": 2, "group": "inter", "target": 3}, {"count": 2, "source": 2, "group": "inter", "target": 3}, {"count": 3, "source": 2, "group": "inter", "target": 14}, {"count": 4, "source": 2, "group": "inter", "target": 14}, {"count": 1, "source": 4, "group": "inter", "target": 3}, {"count": 2, "source": 4, "group": "inter", "target": 3}, {"count": 3, "source": 4, "group": "inter", "target": 3}, {"count": 1, "source": 5, "group": "inter", "target": 4}, {"count": 2, "source": 5, "group": "inter", "target": 4}, {"count": 3, "source": 5, "group": "inter", "target": 4}, {"count": 4, "source": 5, "group": "inter", "target": 6}, {"count": 5, "source": 5, "group": "inter", "target": 6}, {"count": 1, "source": 6, "group": "inter", "target": 86}, {"count": 2, "source": 6, "group": "inter", "target": 88}, {"count": 3, "source": 6, "group": "inter", "target": 114}, {"count": 4, "source": 6, "group": "inter", "target": 115}, {"count": 5, "source": 6, "group": "inter", "target": 125}, {"count": 6, "source": 6, "group": "inter", "target": 126}, {"count": 1, "source": 7, "group": "inter", "target": 6}, {"count": 2, "source": 7, "group": "inter", "target": 6}, {"count": 3, "source": 7, "group": "inter", "target": 11}, {"count": 4, "source": 7, "group": "inter", "target": 13}, {"count": 5, "source": 7, "group": "inter", "target": 17}, {"count": 6, "source": 7, "group": "inter", "target": 24}, {"count": 7, "source": 7, "group": "inter", "target": 31}, {"count": 8, "source": 7, "group": "inter", "target": 38}, {"count": 1, "source": 9, "group": "inter", "target": 8}, {"count": 2, "source": 9, "group": "inter", "target": 10}, {"count": 1, "source": 11, "group": "inter", "target": 10}, {"count": 1, "source": 12, "group": "inter", "target": 13}, {"count": 1, "source": 16, "group": "inter", "target": 15}, {"count": 2, "source": 16, "group": "inter", "target": 15}, {"count": 3, "source": 16, "group": "inter", "target": 17}, {"count": 4, "source": 16, "group": "inter", "target": 17}, {"count": 5, "source": 16, "group": "inter", "target": 40}, {"count": 6, "source": 16, "group": "inter", "target": 40}, {"count": 1, "source": 18, "group": "inter", "target": 19}, {"count": 1, "source": 19, "group": "inter", "target": 20}, {"count": 2, "source": 19, "group": "inter", "target": 20}, {"count": 1, "source": 21, "group": "inter", "target": 20}, {"count": 2, "source": 21, "group": "inter", "target": 20}, {"count": 3, "source": 21, "group": "inter", "target": 22}, {"count": 4, "source": 21, "group": "inter", "target": 22}, {"count": 5, "source": 21, "group": "inter", "target": 22}, {"count": 6, "source": 21, "group": "inter", "target": 22}, {"count": 1, "source": 22, "group": "inter", "target": 7}, {"count": 2, "source": 22, "group": "inter", "target": 21}, {"count": 3, "source": 22, "group": "inter", "target": 21}, {"count": 1, "source": 23, "group": "inter", "target": 22}, {"count": 2, "source": 23, "group": "inter", "target": 22}, {"count": 3, "source": 23, "group": "inter", "target": 22}, {"count": 4, "source": 23, "group": "inter", "target": 22}, {"count": 1, "source": 25, "group": "inter", "target": 26}, {"count": 1, "source": 26, "group": "inter", "target": 27}, {"count": 1, "source": 28, "group": "inter", "target": 27}, {"count": 2, "source": 28, "group": "inter", "target": 29}, {"count": 1, "source": 30, "group": "inter", "target": 29}, {"count": 2, "source": 30, "group": "inter", "target": 31}, {"count": 1, "source": 32, "group": "inter", "target": 33}, {"count": 1, "source": 34, "group": "inter", "target": 33}, {"count": 2, "source": 34, "group": "inter", "target": 35}, {"count": 1, "source": 36, "group": "inter", "target": 35}, {"count": 1, "source": 37, "group": "inter", "target": 36}, {"count": 2, "source": 37, "group": "inter", "target": 38}, {"count": 1, "source": 39, "group": "inter", "target": 19}, {"count": 1, "source": 41, "group": "inter", "target": 6}, {"count": 2, "source": 41, "group": "inter", "target": 42}, {"count": 3, "source": 41, "group": "inter", "target": 53}, {"count": 4, "source": 41, "group": "inter", "target": 67}, {"count": 1, "source": 42, "group": "inter", "target": 64}, {"count": 1, "source": 43, "group": "inter", "target": 42}, {"count": 1, "source": 44, "group": "inter", "target": 6}, {"count": 2, "source": 44, "group": "inter", "target": 43}, {"count": 3, "source": 44, "group": "inter", "target": 58}, {"count": 4, "source": 44, "group": "inter", "target": 64}, {"count": 1, "source": 46, "group": "inter", "target": 45}, {"count": 2, "source": 46, "group": "inter", "target": 64}, {"count": 1, "source": 47, "group": "inter", "target": 46}, {"count": 1, "source": 48, "group": "inter", "target": 47}, {"count": 2, "source": 48, "group": "inter", "target": 49}, {"count": 1, "source": 49, "group": "inter", "target": 6}, {"count": 1, "source": 50, "group": "inter", "target": 51}, {"count": 1, "source": 52, "group": "inter", "target": 6}, {"count": 2, "source": 52, "group": "inter", "target": 51}, {"count": 1, "source": 53, "group": "inter", "target": 46}, {"count": 1, "source": 54, "group": "inter", "target": 53}, {"count": 2, "source": 54, "group": "inter", "target": 55}, {"count": 1, "source": 56, "group": "inter", "target": 6}, {"count": 2, "source": 56, "group": "inter", "target": 41}, {"count": 3, "source": 56, "group": "inter", "target": 49}, {"count": 4, "source": 56, "group": "inter", "target": 55}, {"count": 1, "source": 57, "group": "inter", "target": 58}, {"count": 1, "source": 59, "group": "inter", "target": 60}, {"count": 1, "source": 61, "group": "inter", "target": 60}, {"count": 2, "source": 61, "group": "inter", "target": 62}, {"count": 1, "source": 62, "group": "inter", "target": 63}, {"count": 1, "source": 64, "group": "inter", "target": 6}, {"count": 2, "source": 64, "group": "inter", "target": 63}, {"count": 1, "source": 65, "group": "inter", "target": 41}, {"count": 2, "source": 65, "group": "inter", "target": 64}, {"count": 1, "source": 66, "group": "inter", "target": 41}, {"count": 2, "source": 66, "group": "inter", "target": 64}, {"count": 1, "source": 68, "group": "inter", "target": 42}, {"count": 2, "source": 68, "group": "inter", "target": 67}, {"count": 1, "source": 69, "group": "inter", "target": 64}, {"count": 2, "source": 69, "group": "inter", "target": 70}, {"count": 1, "source": 70, "group": "inter", "target": 71}, {"count": 1, "source": 72, "group": "inter", "target": 71}, {"count": 2, "source": 72, "group": "inter", "target": 73}, {"count": 1, "source": 73, "group": "inter", "target": 74}, {"count": 1, "source": 75, "group": "inter", "target": 74}, {"count": 2, "source": 75, "group": "inter", "target": 77}, {"count": 3, "source": 75, "group": "inter", "target": 85}, {"count": 1, "source": 76, "group": "inter", "target": 75}, {"count": 2, "source": 76, "group": "inter", "target": 77}, {"count": 3, "source": 76, "group": "inter", "target": 85}, {"count": 1, "source": 78, "group": "inter", "target": 77}, {"count": 2, "source": 78, "group": "inter", "target": 79}, {"count": 3, "source": 78, "group": "inter", "target": 80}, {"count": 4, "source": 78, "group": "inter", "target": 84}, {"count": 1, "source": 79, "group": "inter", "target": 77}, {"count": 1, "source": 81, "group": "inter", "target": 80}, {"count": 2, "source": 81, "group": "inter", "target": 82}, {"count": 1, "source": 82, "group": "inter", "target": 83}, {"count": 1, "source": 83, "group": "inter", "target": 77}, {"count": 1, "source": 85, "group": "inter", "target": 88}, {"count": 2, "source": 85, "group": "inter", "target": 90}, {"count": 3, "source": 85, "group": "inter", "target": 90}, {"count": 4, "source": 85, "group": "inter", "target": 92}, {"count": 1, "source": 86, "group": "inter", "target": 85}, {"count": 2, "source": 86, "group": "inter", "target": 87}, {"count": 3, "source": 86, "group": "inter", "target": 89}, {"count": 4, "source": 86, "group": "inter", "target": 89}, {"count": 1, "source": 87, "group": "inter", "target": 6}, {"count": 2, "source": 87, "group": "inter", "target": 6}, {"count": 3, "source": 87, "group": "inter", "target": 88}, {"count": 4, "source": 87, "group": "inter", "target": 145}, {"count": 1, "source": 88, "group": "inter", "target": 85}, {"count": 2, "source": 88, "group": "inter", "target": 87}, {"count": 3, "source": 88, "group": "inter", "target": 89}, {"count": 4, "source": 88, "group": "inter", "target": 93}, {"count": 5, "source": 88, "group": "inter", "target": 96}, {"count": 1, "source": 89, "group": "inter", "target": 88}, {"count": 2, "source": 89, "group": "inter", "target": 104}, {"count": 1, "source": 90, "group": "inter", "target": 89}, {"count": 2, "source": 90, "group": "inter", "target": 89}, {"count": 3, "source": 90, "group": "inter", "target": 89}, {"count": 1, "source": 91, "group": "inter", "target": 88}, {"count": 2, "source": 91, "group": "inter", "target": 90}, {"count": 3, "source": 91, "group": "inter", "target": 90}, {"count": 4, "source": 91, "group": "inter", "target": 92}, {"count": 1, "source": 92, "group": "inter", "target": 89}, {"count": 1, "source": 93, "group": "inter", "target": 89}, {"count": 1, "source": 94, "group": "inter", "target": 88}, {"count": 2, "source": 94, "group": "inter", "target": 89}, {"count": 3, "source": 94, "group": "inter", "target": 93}, {"count": 4, "source": 94, "group": "inter", "target": 93}, {"count": 5, "source": 94, "group": "inter", "target": 95}, {"count": 6, "source": 94, "group": "inter", "target": 106}, {"count": 1, "source": 95, "group": "inter", "target": 93}, {"count": 2, "source": 95, "group": "inter", "target": 106}, {"count": 1, "source": 96, "group": "inter", "target": 89}, {"count": 2, "source": 96, "group": "inter", "target": 89}, {"count": 3, "source": 96, "group": "inter", "target": 93}, {"count": 1, "source": 98, "group": "inter", "target": 97}, {"count": 2, "source": 98, "group": "inter", "target": 99}, {"count": 1, "source": 100, "group": "inter", "target": 89}, {"count": 2, "source": 100, "group": "inter", "target": 99}, {"count": 1, "source": 101, "group": "inter", "target": 100}, {"count": 1, "source": 102, "group": "inter", "target": 101}, {"count": 2, "source": 102, "group": "inter", "target": 103}, {"count": 1, "source": 103, "group": "inter", "target": 104}, {"count": 1, "source": 105, "group": "inter", "target": 95}, {"count": 1, "source": 106, "group": "inter", "target": 6}, {"count": 1, "source": 107, "group": "inter", "target": 108}, {"count": 2, "source": 107, "group": "inter", "target": 109}, {"count": 1, "source": 108, "group": "inter", "target": 87}, {"count": 1, "source": 109, "group": "inter", "target": 89}, {"count": 2, "source": 109, "group": "inter", "target": 106}, {"count": 1, "source": 111, "group": "inter", "target": 110}, {"count": 1, "source": 112, "group": "inter", "target": 111}, {"count": 2, "source": 112, "group": "inter", "target": 113}, {"count": 1, "source": 113, "group": "inter", "target": 114}, {"count": 1, "source": 115, "group": "inter", "target": 129}, {"count": 1, "source": 116, "group": "inter", "target": 87}, {"count": 1, "source": 117, "group": "inter", "target": 88}, {"count": 2, "source": 117, "group": "inter", "target": 88}, {"count": 3, "source": 117, "group": "inter", "target": 115}, {"count": 4, "source": 117, "group": "inter", "target": 115}, {"count": 5, "source": 117, "group": "inter", "target": 122}, {"count": 6, "source": 117, "group": "inter", "target": 144}, {"count": 1, "source": 119, "group": "inter", "target": 118}, {"count": 2, "source": 119, "group": "inter", "target": 120}, {"count": 1, "source": 121, "group": "inter", "target": 120}, {"count": 2, "source": 121, "group": "inter", "target": 128}, {"count": 1, "source": 122, "group": "inter", "target": 121}, {"count": 1, "source": 123, "group": "inter", "target": 124}, {"count": 2, "source": 123, "group": "inter", "target": 125}, {"count": 1, "source": 124, "group": "inter", "target": 125}, {"count": 1, "source": 126, "group": "inter", "target": 115}, {"count": 2, "source": 126, "group": "inter", "target": 115}, {"count": 3, "source": 126, "group": "inter", "target": 128}, {"count": 4, "source": 126, "group": "inter", "target": 128}, {"count": 5, "source": 126, "group": "inter", "target": 128}, {"count": 6, "source": 126, "group": "inter", "target": 129}, {"count": 7, "source": 126, "group": "inter", "target": 129}, {"count": 1, "source": 127, "group": "inter", "target": 121}, {"count": 2, "source": 127, "group": "inter", "target": 126}, {"count": 3, "source": 127, "group": "inter", "target": 128}, {"count": 1, "source": 128, "group": "inter", "target": 115}, {"count": 2, "source": 128, "group": "inter", "target": 115}, {"count": 3, "source": 128, "group": "inter", "target": 134}, {"count": 1, "source": 129, "group": "inter", "target": 132}, {"count": 1, "source": 131, "group": "inter", "target": 129}, {"count": 2, "source": 131, "group": "inter", "target": 130}, {"count": 1, "source": 132, "group": "inter", "target": 133}, {"count": 1, "source": 133, "group": "inter", "target": 128}, {"count": 1, "source": 134, "group": "inter", "target": 128}, {"count": 2, "source": 134, "group": "inter", "target": 135}, {"count": 1, "source": 135, "group": "inter", "target": 115}, {"count": 2, "source": 135, "group": "inter", "target": 122}, {"count": 3, "source": 135, "group": "inter", "target": 128}, {"count": 4, "source": 135, "group": "inter", "target": 138}, {"count": 5, "source": 135, "group": "inter", "target": 139}, {"count": 1, "source": 136, "group": "inter", "target": 135}, {"count": 2, "source": 136, "group": "inter", "target": 137}, {"count": 1, "source": 138, "group": "inter", "target": 137}, {"count": 1, "source": 139, "group": "inter", "target": 115}, {"count": 2, "source": 139, "group": "inter", "target": 124}, {"count": 3, "source": 139, "group": "inter", "target": 125}, {"count": 4, "source": 139, "group": "inter", "target": 141}, {"count": 1, "source": 141, "group": "inter", "target": 115}, {"count": 2, "source": 141, "group": "inter", "target": 115}, {"count": 3, "source": 141, "group": "inter", "target": 115}, {"count": 4, "source": 141, "group": "inter", "target": 115}, {"count": 5, "source": 141, "group": "inter", "target": 115}, {"count": 6, "source": 141, "group": "inter", "target": 140}, {"count": 7, "source": 141, "group": "inter", "target": 142}, {"count": 1, "source": 142, "group": "inter", "target": 115}, {"count": 2, "source": 142, "group": "inter", "target": 141}, {"count": 1, "source": 144, "group": "inter", "target": 143}, {"count": 2, "source": 144, "group": "inter", "target": 151}, {"count": 1, "source": 146, "group": "inter", "target": 6}, {"count": 2, "source": 146, "group": "inter", "target": 115}, {"count": 1, "source": 147, "group": "inter", "target": 146}, {"count": 2, "source": 147, "group": "inter", "target": 146}, {"count": 1, "source": 148, "group": "inter", "target": 147}, {"count": 2, "source": 148, "group": "inter", "target": 149}, {"count": 1, "source": 149, "group": "inter", "target": 150}, {"count": 1, "source": 150, "group": "inter", "target": 142}, {"count": 1, "source": 151, "group": "inter", "target": 115}, {"count": 2, "source": 151, "group": "inter", "target": 115}, {"count": 3, "source": 151, "group": "inter", "target": 142}, {"count": 4, "source": 151, "group": "inter", "target": 144}, {"count": 5, "source": 151, "group": "inter", "target": 152}, {"count": 6, "source": 151, "group": "inter", "target": 153}, {"count": 7, "source": 151, "group": "inter", "target": 153}, {"count": 1, "source": 152, "group": "inter", "target": 151}, {"count": 2, "source": 152, "group": "inter", "target": 151}, {"count": 3, "source": 152, "group": "inter", "target": 153}, {"count": 1, "source": 153, "group": "inter", "target": 87}, {"count": 2, "source": 153, "group": "inter", "target": 88}, {"count": 3, "source": 153, "group": "inter", "target": 151}, {"count": 4, "source": 153, "group": "inter", "target": 151}, {"count": 5, "source": 153, "group": "inter", "target": 151}, {"count": 6, "source": 153, "group": "inter", "target": 152}, {"count": 1, "source": 154, "group": "inter", "target": 153}, {"count": 2, "source": 154, "group": "inter", "target": 155}, {"count": 1, "source": 155, "group": "inter", "target": 87}]}