{"nodes": [{"city": "", "name": "planetlab1.koganei.itrc.net", "country": "JP", "region": "", "ISP": "Asia Pacific Advanced Network - Japan", "longitude": "139.69000", "AS": 7660, "ip": "133.69.32.131", "latitude": "35.69000", "type": "client"}, {"city": "", "name": "133.69.32.129", "country": "JP", "region": "", "ISP": "Asia Pacific Advanced Network - Japan", "longitude": "139.69000", "AS": 7660, "ip": "133.69.32.129", "latitude": "35.69000", "type": "router"}, {"city": "", "name": "tpr5-ge0-0-0-v21.jp.apan.net", "country": "JP", "region": "", "ISP": "Asia Pacific Advanced Network - Japan", "longitude": "139.69000", "AS": 7660, "ip": "203.181.248.134", "latitude": "35.69000", "type": "router"}, {"city": "", "name": "tyo-vyatta-eth0-7.jp.apan.net", "country": "JP", "region": "", "ISP": "Asia Pacific Advanced Network - Japan", "longitude": "139.69000", "AS": 7660, "ip": "203.181.249.21", "latitude": "35.69000", "type": "router"}, {"city": "", "name": "203.181.102.129", "country": "JP", "region": "", "ISP": "KDDI CORPORATION", "longitude": "139.69000", "AS": 2516, "ip": "203.181.102.129", "latitude": "35.69000", "type": "router"}, {"city": "", "name": "210.163.230.74", "country": "JP", "region": "", "ISP": "NTT Communications Corporation", "longitude": "139.69000", "AS": 4713, "ip": "210.163.230.74", "latitude": "35.69000", "type": "router"}, {"city": "", "name": "ae-15.r26.tokyjp05.jp.bb.gin.ntt.net", "country": "", "region": "", "ISP": "NTT America, Inc.", "longitude": "139.69000", "AS": 2914, "ip": "61.213.162.165", "latitude": "35.69000", "type": "router"}, {"city": "Englewood", "name": "ae-0.r30.tokyjp05.jp.bb.gin.ntt.net", "country": "US", "region": "Colorado", "ISP": "NTT America, Inc.", "longitude": "-104.87380", "AS": 2914, "ip": "129.250.2.11", "latitude": "39.62370", "type": "router"}, {"city": "Englewood", "name": "ae-3.r03.tokyjp05.jp.bb.gin.ntt.net", "country": "US", "region": "Colorado", "ISP": "NTT America, Inc.", "longitude": "-104.87380", "AS": 2914, "ip": "129.250.3.56", "latitude": "39.62370", "type": "router"}, {"city": "Tokyo", "name": "120.88.53.202", "country": "JP", "region": "Tokyo", "ISP": "NTT America, Inc.", "longitude": "139.76770", "AS": 2914, "ip": "120.88.53.202", "latitude": "35.64270", "type": "router"}, {"city": "Ashburn", "name": "152.195.112.129", "country": "US", "region": "Virginia", "ISP": "MCI Communications Services, Inc. d/b/a Verizon Business", "longitude": "-77.53900", "AS": 15133, "ip": "152.195.112.129", "latitude": "39.01800", "type": "router"}, {"city": "Singapore", "name": "117.18.232.200", "country": "Singapore", "region": "Singapore", "ISP": "MCI Communications Services, Inc. d/b/a Verizon Business", "longitude": "103.85010", "AS": 15133, "ip": "117.18.232.200", "latitude": "1.28970", "type": "server"}, {"city": "Singapore", "name": "planetlab3.comp.nus.edu.sg", "country": "SG", "region": "Central Singapore Community Development Council", "ISP": "Computer Centre", "longitude": "103.85580", "AS": 7472, "ip": "137.132.80.110", "latitude": "1.29310", "type": "client"}, {"city": "Singapore", "name": "137.132.80.98", "country": "SG", "region": "Central Singapore Community Development Council", "ISP": "Computer Centre", "longitude": "103.85580", "AS": 7472, "ip": "137.132.80.98", "latitude": "1.29310", "type": "router"}, {"city": "Medway Park", "name": "border-cc-m1.nus.edu.sg", "country": "SG", "region": "SINGAPORE", "ISP": "Computer Centre", "longitude": "103.80000", "AS": 7472, "ip": "137.132.3.130", "latitude": "1.36670", "type": "router"}, {"city": "Singapore", "name": "xe-5-3-0.cc-rtr1.gigapop.nus.edu.sg", "country": "SG", "region": "Central Singapore Community Development Council", "ISP": "NUS Gigapop", "longitude": "103.85580", "AS": 7610, "ip": "202.51.241.13", "latitude": "1.29310", "type": "router"}, {"city": "Singapore", "name": "202.51.240.134", "country": "SG", "region": "Central Singapore Community Development Council", "ISP": "NUS Gigapop", "longitude": "103.85650", "AS": 7610, "ip": "202.51.240.134", "latitude": "1.28550", "type": "router"}, {"city": "Beijing", "name": "planetlab-1.sjtu.edu.cn", "country": "CN", "region": "Beijing", "ISP": "China Education and Research Network Center", "longitude": "116.38830", "AS": 4538, "ip": "202.112.28.98", "latitude": "39.92890", "type": "client"}, {"city": "Beijing", "name": "202.112.28.97", "country": "CN", "region": "Beijing", "ISP": "China Education and Research Network Center", "longitude": "116.38830", "AS": 4538, "ip": "202.112.28.97", "latitude": "39.92890", "type": "router"}, {"city": "Beijing", "name": "202.112.27.226", "country": "CN", "region": "Beijing", "ISP": "China Education and Research Network Center", "longitude": "116.38830", "AS": 4538, "ip": "202.112.27.226", "latitude": "39.92890", "type": "router"}, {"city": "Beijing", "name": "101.4.115.174", "country": "CN", "region": "Beijing", "ISP": "China Education and Research Network Center", "longitude": "116.38830", "AS": 4538, "ip": "101.4.115.174", "latitude": "39.92890", "type": "router"}, {"city": "Beijing", "name": "101.4.117.30", "country": "CN", "region": "Beijing", "ISP": "China Education and Research Network Center", "longitude": "116.38830", "AS": 4538, "ip": "101.4.117.30", "latitude": "39.92890", "type": "router"}, {"city": "Beijing", "name": "101.4.116.118", "country": "CN", "region": "Beijing", "ISP": "China Education and Research Network Center", "longitude": "116.38830", "AS": 4538, "ip": "101.4.116.118", "latitude": "39.92890", "type": "router"}, {"city": "Beijing", "name": "101.4.112.69", "country": "CN", "region": "Beijing", "ISP": "China Education and Research Network Center", "longitude": "116.38830", "AS": 4538, "ip": "101.4.112.69", "latitude": "39.92890", "type": "router"}, {"city": "Beijing", "name": "101.4.116.134", "country": "CN", "region": "Beijing", "ISP": "China Education and Research Network Center", "longitude": "116.38830", "AS": 4538, "ip": "101.4.116.134", "latitude": "39.92890", "type": "router"}, {"city": "Beijing", "name": "101.4.115.185", "country": "CN", "region": "Beijing", "ISP": "China Education and Research Network Center", "longitude": "116.38830", "AS": 4538, "ip": "101.4.115.185", "latitude": "39.92890", "type": "router"}, {"city": "Beijing", "name": "202.112.61.122", "country": "CN", "region": "Beijing", "ISP": "China Education and Research Network Center", "longitude": "116.38830", "AS": 4538, "ip": "202.112.61.122", "latitude": "39.92890", "type": "router"}, {"city": "Beijing", "name": "101.4.117.150", "country": "CN", "region": "Beijing", "ISP": "China Education and Research Network Center", "longitude": "116.38830", "AS": 4538, "ip": "101.4.117.150", "latitude": "39.92890", "type": "router"}, {"city": "", "name": "ECN-0031.gw2.hkg9.10026.telstraglobal.net", "country": "JP", "region": "", "ISP": "Pacnet Global Ltd", "longitude": "139.69000", "AS": 10026, "ip": "61.14.134.53", "latitude": "35.69000", "type": "router"}, {"city": "", "name": "planetlab2.koganei.itrc.net", "country": "JP", "region": "", "ISP": "Asia Pacific Advanced Network - Japan", "longitude": "139.69000", "AS": 7660, "ip": "133.69.32.133", "latitude": "35.69000", "type": "client"}, {"city": "Ginza", "name": "otejbb206.int-gw.kddi.ne.jp", "country": "JP", "region": "Tokyo", "ISP": "KDDI CORPORATION", "longitude": "139.69000", "AS": 2516, "ip": "118.155.197.130", "latitude": "35.69000", "type": "router"}, {"city": "Sano", "name": "ix-ote203.int-gw.kddi.ne.jp", "country": "JP", "region": "Tochigi", "ISP": "KDDI CORPORATION", "longitude": "139.58330", "AS": 2516, "ip": "59.128.5.54", "latitude": "36.31670", "type": "router"}, {"city": "", "name": "210.163.230.97", "country": "JP", "region": "", "ISP": "NTT Communications Corporation", "longitude": "139.69000", "AS": 4713, "ip": "210.163.230.97", "latitude": "35.69000", "type": "router"}, {"city": "", "name": "210.163.230.18", "country": "JP", "region": "", "ISP": "NTT Communications Corporation", "longitude": "139.69000", "AS": 4713, "ip": "210.163.230.18", "latitude": "35.69000", "type": "router"}, {"city": "", "name": "ae-14.r27.tokyjp05.jp.bb.gin.ntt.net", "country": "JP", "region": "", "ISP": "NTT America, Inc.", "longitude": "139.69000", "AS": 2914, "ip": "61.213.162.169", "latitude": "35.69000", "type": "router"}, {"city": "Tokyo", "name": "120.88.53.198", "country": "JP", "region": "Tokyo", "ISP": "NTT America, Inc.", "longitude": "139.76770", "AS": 2914, "ip": "120.88.53.198", "latitude": "35.64270", "type": "router"}, {"city": "Ashburn", "name": "152.195.113.129", "country": "US", "region": "Virginia", "ISP": "MCI Communications Services, Inc. d/b/a Verizon Business", "longitude": "-77.53900", "AS": 15133, "ip": "152.195.113.129", "latitude": "39.01800", "type": "router"}, {"city": "Ginza", "name": "otejbb205.int-gw.kddi.ne.jp", "country": "JP", "region": "Tokyo", "ISP": "KDDI CORPORATION", "longitude": "139.69000", "AS": 2516, "ip": "118.155.197.129", "latitude": "35.69000", "type": "router"}, {"city": "Sano", "name": "ix-ote203.int-gw.kddi.ne.jp", "country": "JP", "region": "Tochigi", "ISP": "KDDI CORPORATION", "longitude": "139.58330", "AS": 2516, "ip": "59.128.5.50", "latitude": "36.31670", "type": "router"}, {"city": "Englewood", "name": "ae-2.r02.tokyjp05.jp.bb.gin.ntt.net", "country": "US", "region": "Colorado", "ISP": "NTT America, Inc.", "longitude": "-104.87380", "AS": 2914, "ip": "129.250.3.22", "latitude": "39.62370", "type": "router"}, {"city": "Nanjing", "name": "planetlab-js2.cert.org.cn", "country": "CN", "region": "Jiangsu", "ISP": "No.31,Jin-rong Street", "longitude": "118.77780", "AS": 4134, "ip": "218.94.106.114", "latitude": "32.06170", "type": "client"}, {"city": "Nanjing", "name": "61.155.108.201", "country": "CN", "region": "Jiangsu", "ISP": "No.31,Jin-rong Street", "longitude": "118.77780", "AS": 4134, "ip": "61.155.108.201", "latitude": "32.06170", "type": "router"}, {"city": "Nanjing", "name": "218.2.249.181", "country": "CN", "region": "Jiangsu", "ISP": "No.31,Jin-rong Street", "longitude": "118.77780", "AS": 4134, "ip": "218.2.249.181", "latitude": "32.06170", "type": "router"}, {"city": "Nanjing", "name": "221.231.191.181", "country": "CN", "region": "Jiangsu", "ISP": "No.31,Jin-rong Street", "longitude": "118.77780", "AS": 4134, "ip": "221.231.191.181", "latitude": "32.06170", "type": "router"}, {"city": "Nanjing", "name": "218.2.134.85", "country": "CN", "region": "Jiangsu", "ISP": "No.31,Jin-rong Street", "longitude": "118.77780", "AS": 4134, "ip": "218.2.134.85", "latitude": "32.06170", "type": "router"}, {"city": "", "name": "202.97.55.33", "country": "CN", "region": "", "ISP": "No.31,Jin-rong Street", "longitude": "113.72660", "AS": 4134, "ip": "202.97.55.33", "latitude": "34.77250", "type": "router"}, {"city": "", "name": "202.97.33.94", "country": "CN", "region": "", "ISP": "No.31,Jin-rong Street", "longitude": "113.72660", "AS": 4134, "ip": "202.97.33.94", "latitude": "34.77250", "type": "router"}, {"city": "Shanghai", "name": "202.97.91.30", "country": "CN", "region": "Shanghai", "ISP": "ChinaNet Backbone Network", "longitude": "113.72660", "AS": 4134, "ip": "202.97.91.30", "latitude": "34.77250", "type": "router"}, {"city": "", "name": "202.97.63.2", "country": "CN", "region": "", "ISP": "No.31,Jin-rong Street", "longitude": "113.72660", "AS": 4134, "ip": "202.97.63.2", "latitude": "34.77250", "type": "router"}, {"city": "", "name": "202.97.121.218", "country": "CN", "region": "", "ISP": "No.31,Jin-rong Street", "longitude": "113.72660", "AS": 4134, "ip": "202.97.121.218", "latitude": "34.77250", "type": "router"}, {"city": "Athens", "name": "TenGE0-0-0-15.br02.hkg12.pccwbtn.net", "country": "GR", "region": "Attica", "ISP": "Beyond The Network America, Inc.", "longitude": "23.73330", "AS": 3491, "ip": "63.218.174.81", "latitude": "37.98330", "type": "router"}, {"city": "Athens", "name": "63-218-175-174.static.pccwglobal.net", "country": "GR", "region": "Attica", "ISP": "Beyond The Network America, Inc.", "longitude": "23.73330", "AS": 3491, "ip": "63.218.175.174", "latitude": "37.98330", "type": "router"}, {"city": "Dunedin", "name": "planetlab2.cs.otago.ac.nz", "country": "NZ", "region": "Otago", "ISP": "The University of Otago", "longitude": "170.51190", "AS": 38305, "ip": "139.80.206.133", "latitude": "-45.87140", "type": "client"}, {"city": "Dunedin", "name": "gw-planetlab-otago.otago.ac.nz", "country": "NZ", "region": "Otago", "ISP": "The University of Otago", "longitude": "170.51190", "AS": 38305, "ip": "139.80.206.129", "latitude": "-45.87140", "type": "router"}, {"city": "Dunedin", "name": "offramp-hsrp-444.otago.ac.nz", "country": "NZ", "region": "Otago", "ISP": "The University of Otago", "longitude": "170.51190", "AS": 38305, "ip": "139.80.96.2", "latitude": "-45.87140", "type": "router"}, {"city": "Dunedin", "name": "exodus-dmz-911.otago.ac.nz", "country": "NZ", "region": "Otago", "ISP": "The University of Otago", "longitude": "170.51190", "AS": 38305, "ip": "139.80.244.106", "latitude": "-45.87140", "type": "router"}, {"city": "Nelson", "name": "210.7.39.17", "country": "NZ", "region": "Nelson", "ISP": "REANNZ National Research and Education Network", "longitude": "173.33570", "AS": 38022, "ip": "210.7.39.17", "latitude": "-41.28810", "type": "router"}, {"city": "Auckland", "name": "43.243.21.50", "country": "New Zealand", "region": "Auckland", "ISP": "New Zealand Auckland Internet Exchange", "longitude": "174.76670", "AS": 18119, "ip": "43.243.21.50", "latitude": "-36.86670", "type": "router"}, {"city": "Auckland", "name": "43.243.21.27", "country": "New Zealand", "region": "Auckland", "ISP": "New Zealand Auckland Internet Exchange", "longitude": "174.76670", "AS": 18119, "ip": "43.243.21.27", "latitude": "-36.86670", "type": "router"}, {"city": "Perth", "name": "114.31.202.48", "country": "AU", "region": "Western Australia", "ISP": "Vocus Connect International Backbone", "longitude": "115.86210", "AS": 4826, "ip": "114.31.202.48", "latitude": "-31.96740", "type": "router"}, {"city": "Perth", "name": "ten-0-3-0-4.cor03.syd03.nsw.vocus.net.au", "country": "AU", "region": "Western Australia", "ISP": "Vocus Connect International Backbone", "longitude": "115.86140", "AS": 4826, "ip": "114.31.202.83", "latitude": "-31.95220", "type": "router"}, {"city": "Padstow", "name": "bundle-101.bdr01.syd01.nsw.VOCUS.net.au", "country": "AU", "region": "New South Wales", "ISP": "Vocus Connect International Backbone", "longitude": "151.03330", "AS": 4826, "ip": "114.31.192.49", "latitude": "-33.95000", "type": "router"}, {"city": "Perth", "name": "as15133.cust.bdr01.syd01.nsw.VOCUS.net.au", "country": "AU", "region": "Western Australia", "ISP": "Vocus Connect International Backbone", "longitude": "115.86140", "AS": 4826, "ip": "114.31.200.54", "latitude": "-31.95220", "type": "router"}, {"city": "Perth", "name": "114.31.202.50", "country": "AU", "region": "Western Australia", "ISP": "Vocus Connect International Backbone", "longitude": "115.86210", "AS": 4826, "ip": "114.31.202.50", "latitude": "-31.96740", "type": "router"}, {"city": "Perth", "name": "ten-0-2-1-0.cor03.syd03.nsw.VOCUS.net.au", "country": "AU", "region": "Western Australia", "ISP": "Vocus Connect International Backbone", "longitude": "115.86140", "AS": 4826, "ip": "114.31.202.36", "latitude": "-31.95220", "type": "router"}, {"city": "Perth", "name": "ten-0-3-0-2.cor03.syd03.nsw.VOCUS.net.au", "country": "AU", "region": "Western Australia", "ISP": "Vocus Connect International Backbone", "longitude": "115.86140", "AS": 4826, "ip": "114.31.202.85", "latitude": "-31.95220", "type": "router"}, {"city": "Chengdu", "name": "planetlab-1.scie.uestc.edu.cn", "country": "CN", "region": "Sichuan", "ISP": "China Education and Research Network Center", "longitude": "104.06670", "AS": 4538, "ip": "222.197.180.137", "latitude": "30.66670", "type": "client"}, {"city": "Chengdu", "name": "222.197.180.129", "country": "CN", "region": "Sichuan", "ISP": "China Education and Research Network Center", "longitude": "104.06670", "AS": 4538, "ip": "222.197.180.129", "latitude": "30.66670", "type": "router"}, {"city": "Clayton North", "name": "pl1.eng.monash.edu.au", "country": "AU", "region": "Victoria", "ISP": "Monash University,", "longitude": "145.11670", "AS": 56132, "ip": "130.194.252.8", "latitude": "-37.91670", "type": "client"}, {"city": "Clayton North", "name": "west1-gw-v252.net.monash.edu.au", "country": "AU", "region": "Victoria", "ISP": "Monash University,", "longitude": "145.11670", "AS": 56132, "ip": "130.194.252.253", "latitude": "-37.91670", "type": "router"}, {"city": "Monash", "name": "core-gw1-e1-16.net.monash.edu.au", "country": "AU", "region": "South Australia", "ISP": "Monash University,", "longitude": "140.56670", "AS": 56132, "ip": "130.194.28.226", "latitude": "-34.23330", "type": "router"}, {"city": "Armadale North", "name": "xe-5-0-1-202.pe1.wmlb.vic.aarnet.net.au", "country": "AU", "region": "Victoria", "ISP": "Australian Academic and Reasearch Network (AARNet)", "longitude": "145.11670", "AS": 7575, "ip": "138.44.64.54", "latitude": "-37.91670", "type": "router"}, {"city": "Canberra", "name": "ae2.vic-wmlb-bdr1.aarnet.net.au", "country": "AU", "region": "Australian Capital Territory", "ISP": "Australian Academic and Reasearch Network (AARNet)", "longitude": "149.13440", "AS": 7575, "ip": "113.197.15.139", "latitude": "-35.27600", "type": "router"}, {"city": "Belbourne", "name": "as4826.vic.ix.asn.au", "country": "Australia", "region": "Victoria", "ISP": "Western Australian Internet Association", "longitude": "144.96330", "AS": 7606, "ip": "218.100.78.11", "latitude": "-37.81400", "type": "router"}, {"city": "Melbourne", "name": "114.31.196.43", "country": "AU", "region": "Victoria", "ISP": "Vocus Connect International Backbone", "longitude": "144.95440", "AS": 4826, "ip": "114.31.196.43", "latitude": "-37.81030", "type": "router"}, {"city": "Melbourne", "name": "114.31.196.57", "country": "AU", "region": "Victoria", "ISP": "Vocus Connect International Backbone", "longitude": "144.95440", "AS": 4826, "ip": "114.31.196.57", "latitude": "-37.81030", "type": "router"}, {"city": "", "name": "asn15133.cust.bdr02.mel07.vic.VOCUS.net.au", "country": "AU", "region": "Victoria", "ISP": "Vocus Connect International Backbone", "longitude": "144.96340", "AS": 4826, "ip": "175.45.117.182", "latitude": "-37.81390", "type": "router"}, {"city": "Clayton North", "name": "pl2.eng.monash.edu.au", "country": "AU", "region": "Victoria", "ISP": "Monash University,", "longitude": "145.11670", "AS": 56132, "ip": "130.194.252.9", "latitude": "-37.91670", "type": "client"}, {"city": "Hiroshima", "name": "pl1.sos.info.hiroshima-cu.ac.jp", "country": "Japan", "region": "Hiroshima", "ISP": "Hiroshima City University", "longitude": "132.45940", "AS": 2506, "ip": "165.242.90.128", "latitude": "34.39630", "type": "client"}, {"city": "Hiroshima", "name": "165.242.90.1", "country": "Japan", "region": "Hiroshima", "ISP": "Hiroshima City University", "longitude": "132.45940", "AS": 2506, "ip": "165.242.90.1", "latitude": "34.39630", "type": "router"}, {"city": "Hiroshima", "name": "165.242.35.66", "country": "Japan", "region": "Hiroshima", "ISP": "Hiroshima City University", "longitude": "132.45940", "AS": 2506, "ip": "165.242.35.66", "latitude": "34.39630", "type": "router"}, {"city": "Hiroshima", "name": "165.242.3.35", "country": "Japan", "region": "Hiroshima", "ISP": "Hiroshima City University", "longitude": "132.45940", "AS": 2506, "ip": "165.242.3.35", "latitude": "34.39630", "type": "router"}, {"city": "Tokyo", "name": "202.15.114.1", "country": "Japan", "region": "Tokyo", "ISP": "NTT WEST CHUGOKU CORPORATION", "longitude": "139.69000", "AS": 2506, "ip": "202.15.114.1", "latitude": "35.69000", "type": "router"}, {"city": "Tokyo", "name": "hiroshima-RM-XE-4-0-1-0.s5.sinet.ad.jp", "country": "Japan", "region": "Tokyo", "ISP": "Research Organization of Information and Systems, National Institute of Informatics", "longitude": "139.69000", "AS": 2907, "ip": "150.99.188.1", "latitude": "35.69000", "type": "router"}, {"city": "Tokyo", "name": "tokyo1-GM-ET-7-1-0-136.s5.sinet.ad.jp", "country": "Japan", "region": "Tokyo", "ISP": "Research Organization of Information and Systems, National Institute of Informatics", "longitude": "139.69000", "AS": 2907, "ip": "150.99.82.103", "latitude": "35.69000", "type": "router"}, {"city": "Tokyo", "name": "kote-GM-ET-4-1-0-100.s5.sinet.ad.jp", "country": "Japan", "region": "Tokyo", "ISP": "Research Organization of Information and Systems, National Institute of Informatics", "longitude": "139.69000", "AS": 2907, "ip": "150.99.89.249", "latitude": "35.69000", "type": "router"}, {"city": "Tokyo", "name": "as10026-2.ix.jpix.ad.jp", "country": "Japan", "region": "Tokyo", "ISP": "Japan Internet Exchange Co., Ltd.", "longitude": "139.69000", "AS": 7527, "ip": "210.171.224.84", "latitude": "35.69000", "type": "router"}, {"city": "", "name": "gi3-0-0.gw1.nrt5.10026.telstraglobal.net", "country": "", "region": "", "ISP": "Telstra Global", "longitude": "105.00000", "AS": 4637, "ip": "202.147.1.186", "latitude": "35.00000", "type": "router"}, {"city": "Tokyo", "name": "ge-1-0-0-0.gw3.nrt5.10026.telstraglobal.net", "country": "Japan", "region": "Tokyo", "ISP": "Telstra Global", "longitude": "139.69170", "AS": 4637, "ip": "202.147.0.46", "latitude": "35.68950", "type": "router"}, {"city": "Brookvale", "name": "ECN-0028.10026.telstraglobal.net", "country": "Australia", "region": "New South Wales", "ISP": "Telstra Global", "longitude": "151.26670", "AS": 4637, "ip": "203.192.129.226", "latitude": "-33.76670", "type": "router"}, {"city": "Wellington", "name": "planetlab2.ecs.vuw.ac.nz", "country": "NZ", "region": "Wellington", "ISP": "Victoria University of Wellington", "longitude": "174.78310", "AS": 23905, "ip": "130.195.4.69", "latitude": "-41.29420", "type": "client"}, {"city": "Wellington", "name": "130.195.4.65", "country": "NZ", "region": "Wellington", "ISP": "Victoria University of Wellington", "longitude": "174.78310", "AS": 23905, "ip": "130.195.4.65", "latitude": "-41.29420", "type": "router"}, {"city": "Nelson", "name": "210.7.39.101", "country": "NZ", "region": "Nelson", "ISP": "REANNZ National Research and Education Network", "longitude": "173.33570", "AS": 38022, "ip": "210.7.39.101", "latitude": "-41.28810", "type": "router"}, {"city": "", "name": "222.197.180.139", "country": "", "region": "", "ISP": "China Education and Research Network Center", "longitude": "104.06670", "AS": 4538, "ip": "222.197.180.139", "latitude": "30.66670", "type": "server"}, {"city": "Nanjing", "name": "planetlab-js1.cert.org.cn", "country": "CN", "region": "Jiangsu", "ISP": "No.31,Jin-rong Street", "longitude": "118.77780", "AS": 4134, "ip": "218.94.106.112", "latitude": "32.06170", "type": "client"}, {"city": "", "name": "202.97.55.37", "country": "CN", "region": "", "ISP": "No.31,Jin-rong Street", "longitude": "113.72660", "AS": 4134, "ip": "202.97.55.37", "latitude": "34.77250", "type": "router"}, {"city": "", "name": "202.97.24.198", "country": "CN", "region": "", "ISP": "No.31,Jin-rong Street", "longitude": "113.72660", "AS": 4134, "ip": "202.97.24.198", "latitude": "34.77250", "type": "router"}, {"city": "Shanghai", "name": "202.97.91.102", "country": "China", "region": "Shanghai", "ISP": "ChinaNet Backbone Network", "longitude": "121.45810", "AS": 4134, "ip": "202.97.91.102", "latitude": "31.22220", "type": "router"}, {"city": "Athens", "name": "63.218.174.93", "country": "GR", "region": "Attica", "ISP": "Beyond The Network America, Inc.", "longitude": "23.73330", "AS": 3491, "ip": "63.218.174.93", "latitude": "37.98330", "type": "router"}, {"city": "Athens", "name": "TenGE0-0-0-10.br02.hkg12.pccwbtn.net", "country": "GR", "region": "Attica", "ISP": "Beyond The Network America, Inc.", "longitude": "23.73330", "AS": 3491, "ip": "63.218.174.77", "latitude": "37.98330", "type": "router"}, {"city": "Seattle", "name": "planetlab01.cs.washington.edu", "country": "US", "region": "Washington", "ISP": "University of Washington", "longitude": "-122.29190", "AS": 73, "ip": "128.208.4.197", "latitude": "47.66060", "type": "router"}, {"city": "Seattle", "name": "acar-atg-02-vlan77.cac.washington.edu", "country": "US", "region": "Washington", "ISP": "University of Washington", "longitude": "-122.29190", "AS": 73, "ip": "128.208.4.102", "latitude": "47.66060", "type": "router"}, {"city": "Seattle", "name": "lo0--1.uwcr-atg-1.infra.washington.edu", "country": "US", "region": "Washington", "ISP": "University of Washington", "longitude": "-122.29190", "AS": 73, "ip": "198.48.66.1", "latitude": "47.66060", "type": "router"}, {"city": "Seattle", "name": "ae0--4010.icar-sttl1-2.infra.pnw-gigapop.net", "country": "US", "region": "Washington", "ISP": "University of Washington", "longitude": "-122.34220", "AS": 101, "ip": "209.124.188.134", "latitude": "47.63440", "type": "router"}, {"city": "Seatle", "name": "206.81.80.84", "country": "United States", "region": "Washington", "ISP": "Seattle Internet Exchange Inc.", "longitude": "-123.33330", "AS": 33108, "ip": "206.81.80.84", "latitude": "47.61170", "type": "router"}, {"city": "Seatle", "name": "six.sea.edgecastcdn.net", "country": "United States", "region": "Washington", "ISP": "Seattle Internet Exchange Inc.", "longitude": "-122.33330", "AS": 33108, "ip": "206.81.80.152", "latitude": "47.61170", "type": "router"}, {"city": "Ashburn", "name": "72.21.81.200", "country": "United States", "region": "Virginia", "ISP": "MCI Communications Services, Inc. d/b/a Verizon Business", "longitude": "-77.53900", "AS": 15133, "ip": "72.21.81.200", "latitude": "39.01800", "type": "server"}, {"city": "Los Angeles", "name": "206.117.37.7", "country": "US", "region": "California", "ISP": "University of Southern California", "longitude": "-118.24400", "AS": 4, "ip": "206.117.37.7", "latitude": "34.05440", "type": "router"}, {"city": "Los Angeles", "name": "206.117.37.1", "country": "United States", "region": "California", "ISP": "University of Southern California", "longitude": "-118.24370", "AS": 4, "ip": "206.117.37.1", "latitude": "34.05220", "type": "router"}, {"city": "Los Angeles", "name": "198.32.16.81", "country": "United States", "region": "California", "ISP": "University of Southern California", "longitude": "-118.45170", "AS": 4, "ip": "198.32.16.81", "latitude": "33.98030", "type": "router"}, {"city": "Los Angeles", "name": "130.152.181.121", "country": "US", "region": "California", "ISP": "Los Nettos", "longitude": "-118.24370", "AS": 226, "ip": "130.152.181.121", "latitude": "34.05220", "type": "router"}, {"city": "Fremont", "name": "v338.core1.lax2.he.net", "country": "US", "region": "California", "ISP": "Hurricane Electric, Inc.", "longitude": "-121.89620", "AS": 6939, "ip": "216.218.223.25", "latitude": "37.51550", "type": "router"}, {"city": "Fremont", "name": "edgecast-as15133.10gigabitethernet1-1-45.switch3.lax2.he.net", "country": "US", "region": "California", "ISP": "Hurricane Electric, Inc.", "longitude": "-121.89620", "AS": 6939, "ip": "216.218.147.18", "latitude": "37.51550", "type": "router"}, {"city": "San Luis Obispo", "name": "planetlab-2.calpoly-netlab.net", "country": "US", "region": "California", "ISP": "California Polytechnic State University", "longitude": "-120.45530", "AS": 46357, "ip": "208.94.63.194", "latitude": "35.34710", "type": "client"}, {"city": "San Luis Obispo", "name": "planetlab-gateway.calpoly-netlab.net", "country": "US", "region": "California", "ISP": "California Polytechnic State University", "longitude": "-120.45530", "AS": 46357, "ip": "208.94.63.198", "latitude": "35.34710", "type": "router"}, {"city": "San Luis Obispo", "name": "72.29.183.57", "country": "US", "region": "California", "ISP": "Digital West Networks, Inc.", "longitude": "-120.62140", "AS": 14589, "ip": "72.29.183.57", "latitude": "35.25650", "type": "router"}, {"city": "San Luis Obispo", "name": "xe-0-0-1-5019.core02.dwni.pin.sjc1.digitalwest.net", "country": "US", "region": "California", "ISP": "Digital West Networks, Inc.", "longitude": "-120.62140", "AS": 14589, "ip": "72.29.160.203", "latitude": "35.25650", "type": "router"}, {"city": "Redwood City", "name": "core1.sjo.edgecastcdn.net", "country": "US", "region": "California", "ISP": "Equinix, Inc.", "longitude": "-122.24710", "AS": 32007, "ip": "206.223.116.170", "latitude": "37.53310", "type": "router"}, {"city": "Los Angeles", "name": "planetlab1.cs.ucla.edu", "country": "United States", "region": "California", "ISP": "University of California, Los Angeles", "longitude": "-118.29870", "AS": 52, "ip": "131.179.150.70", "latitude": "33.78660", "type": "client"}, {"city": "Los Angeles", "name": "131.179.150.3", "country": "United States", "region": "California", "ISP": "University of California, Los Angeles", "longitude": "-118.29870", "AS": 52, "ip": "131.179.150.3", "latitude": "33.78660", "type": "router"}, {"city": "Los Angeles", "name": "169.232.12.154", "country": "United States", "region": "California", "ISP": "University of California, Los Angeles", "longitude": "-118.29870", "AS": 52, "ip": "169.232.12.154", "latitude": "33.78660", "type": "router"}, {"city": "Los Angeles", "name": "dr00f2.csb1--cr00f2.csb1.ucla.net", "country": "United States", "region": "California", "ISP": "University of California, Los Angeles", "longitude": "-118.29870", "AS": 52, "ip": "169.232.4.52", "latitude": "33.78660", "type": "router"}, {"city": "Los Angeles", "name": "cr00f2.csb1--bd11f1.anderson.ucla.net", "country": "United States", "region": "California", "ISP": "University of California, Los Angeles", "longitude": "-118.29870", "AS": 52, "ip": "169.232.4.5", "latitude": "33.78660", "type": "router"}, {"city": "Parlier", "name": "137.164.24.134", "country": "United States", "region": "California", "ISP": "California State University, Office of the Chancellor", "longitude": "-118.03770", "AS": 2152, "ip": "137.164.24.134", "latitude": "33.81880", "type": "router"}, {"city": "Marina del Rey", "name": "198.32.251.206", "country": "United States", "region": "California", "ISP": "California State University, Office of the Chancellor", "longitude": "-118.45170", "AS": 2152, "ip": "198.32.251.206", "latitude": "33.98030", "type": "router"}, {"city": "San Jose", "name": "192.229.130.88", "country": "United States", "region": "California", "ISP": "MCI Communications Services, Inc. d/b/a Verizon Business", "longitude": "-121.89500", "AS": 15133, "ip": "192.229.130.88", "latitude": "37.33940", "type": "router"}, {"city": "Reno", "name": "planetlab1.unr.edu", "country": "US", "region": "Nevada", "ISP": "Nevada System of Higher Education", "longitude": "-119.81380", "AS": 3851, "ip": "134.197.113.3", "latitude": "39.52960", "type": "router"}, {"city": "Reno", "name": "134.197.113.14", "country": "US", "region": "Nevada", "ISP": "Nevada System of Higher Education", "longitude": "-119.81380", "AS": 3851, "ip": "134.197.113.14", "latitude": "39.52960", "type": "router"}, {"city": "Reno", "name": "134.197.0.33", "country": "US", "region": "Nevada", "ISP": "Nevada System of Higher Education", "longitude": "-119.81380", "AS": 3851, "ip": "134.197.0.33", "latitude": "39.52960", "type": "router"}, {"city": "Empire", "name": "scs-unr-link1.scsr.nevada.edu", "country": "US", "region": "Nevada", "ISP": "Nevada System of Higher Education", "longitude": "-119.58690", "AS": 3851, "ip": "207.197.33.69", "latitude": "40.54120", "type": "router"}, {"city": "Empire", "name": "i2cps-nshe-slc.scsr.nevada.edu", "country": "US", "region": "Nevada", "ISP": "Nevada System of Higher Education", "longitude": "-119.58690", "AS": 3851, "ip": "207.197.33.46", "latitude": "40.54120", "type": "router"}, {"city": "Vancouver", "name": "142.103.2.2", "country": "CA", "region": "British Columbia", "ISP": "University of British Columbia", "longitude": "-122.82200", "AS": 393249, "ip": "142.103.2.2", "latitude": "49.46350", "type": "server"}, {"city": "Vancouver", "name": "142.103.2.253", "country": "CA", "region": "British Columbia", "ISP": "University of British Columbia", "longitude": "-122.82200", "AS": 393249, "ip": "142.103.2.253", "latitude": "49.46350", "type": "router"}, {"city": "Vancouver", "name": "142.103.78.250", "country": "CA", "region": "British Columbia", "ISP": "University of British Columbia", "longitude": "-122.82200", "AS": 393249, "ip": "142.103.78.250", "latitude": "49.46350", "type": "router"}, {"city": "Vancouver", "name": "anguborder-a0.net.ubc.ca", "country": "CA", "region": "British Columbia", "ISP": "University of British Columbia", "longitude": "-122.82200", "AS": 393249, "ip": "137.82.123.137", "latitude": "49.46350", "type": "router"}, {"city": "Vancouver", "name": "207.23.240.86", "country": "CA", "region": "British Columbia", "ISP": "BCnet", "longitude": "-123.11390", "AS": 271, "ip": "207.23.240.86", "latitude": "49.27880", "type": "router"}, {"city": "Fremont", "name": "v559.core1.yvr1.he.net", "country": "US", "region": "California", "ISP": "Hurricane Electric, Inc.", "longitude": "-121.96210", "AS": 6939, "ip": "184.105.148.149", "latitude": "37.54970", "type": "router"}, {"city": "Fremont", "name": "100ge4-2.core1.sea1.he.net", "country": "US", "region": "California", "ISP": "Hurricane Electric, Inc.", "longitude": "-121.98860", "AS": 6939, "ip": "184.105.64.109", "latitude": "37.54830", "type": "router"}, {"city": "Redwood City", "name": "198.32.134.59", "country": "US", "region": "California", "ISP": "unknown", "longitude": "-122.24710", "AS": -1, "ip": "198.32.134.59", "latitude": "37.53310", "type": "router"}, {"city": "Seattle", "name": "192.16.54.89", "country": "US", "region": "Washington", "ISP": "MCI Communications Services, Inc. d/b/a Verizon Business", "longitude": "-122.33210", "AS": 15133, "ip": "192.16.54.89", "latitude": "47.60620", "type": "router"}, {"city": "Eugene", "name": "planetlab2.cs.uoregon.edu", "country": "US", "region": "Oregon", "ISP": "University of Oregon", "longitude": "-123.05470", "AS": 3582, "ip": "128.223.8.112", "latitude": "44.03640", "type": "client"}, {"city": "Eugene", "name": "vl-8.uonet1-gw.uoregon.edu", "country": "US", "region": "Oregon", "ISP": "University of Oregon", "longitude": "-123.05470", "AS": 3582, "ip": "128.223.8.2", "latitude": "44.03640", "type": "router"}, {"city": "Eugene", "name": "2.bundle-ether10.uonet10-gw.uoregon.edu", "country": "US", "region": "Oregon", "ISP": "University of Oregon", "longitude": "-123.05470", "AS": 3582, "ip": "128.223.2.10", "latitude": "44.03640", "type": "router"}, {"city": "Corvallis", "name": "198.32.165.253", "country": "United States", "region": "Oregon", "ISP": "EP.net LLC.", "longitude": "-123.26200", "AS": 11537, "ip": "198.32.165.253", "latitude": "44.56160", "type": "router"}, {"city": "Seattle", "name": "planetlab02.cs.washington.edu", "country": "US", "region": "Washington", "ISP": "University of Washington", "longitude": "-122.29190", "AS": 73, "ip": "128.208.4.198", "latitude": "47.66060", "type": "client"}, {"city": "Los Angeles", "name": "planetlab2.cs.ucla.edu", "country": "US", "region": "California", "ISP": "University of California, Los Angeles", "longitude": "-118.29870", "AS": 52, "ip": "131.179.150.72", "latitude": "33.78660", "type": "client"}, {"city": "Los Angeles", "name": "planetlab1.postel.org", "country": "United States", "region": "California", "ISP": "University of Southern California", "longitude": "-118.24370", "AS": 4, "ip": "206.117.37.4", "latitude": "34.05220", "type": "client"}, {"city": "Eugene", "name": "planetlab3.cs.uoregon.edu", "country": "US", "region": "Oregon", "ISP": "University of Oregon", "longitude": "-123.05470", "AS": 3582, "ip": "128.223.8.113", "latitude": "44.03640", "type": "client"}, {"city": "Eugene", "name": "planetlab4.cs.uoregon.edu", "country": "US", "region": "Oregon", "ISP": "University of Oregon", "longitude": "-123.05470", "AS": 3582, "ip": "128.223.8.114", "latitude": "44.03640", "type": "client"}, {"city": "Eugene", "name": "128.223.2.9", "country": "US", "region": "Oregon", "ISP": "University of Oregon", "longitude": "-123.05470", "AS": 3582, "ip": "128.223.2.9", "latitude": "44.03640", "type": "router"}, {"city": "Corvallis", "name": "198.32.165.254", "country": "United States", "region": "Oregon", "ISP": "EP.net LLC.", "longitude": "-123.26200", "AS": 11537, "ip": "198.32.165.254", "latitude": "44.56460", "type": "router"}, {"city": "Seattle", "name": "128.208.4.99", "country": "US", "region": "Washington", "ISP": "University of Washington", "longitude": "-122.29190", "AS": 73, "ip": "128.208.4.99", "latitude": "47.66060", "type": "router"}, {"city": "Bozeman", "name": "pl2.cs.montana.edu", "country": "US", "region": "Montana", "ISP": "Montana State University", "longitude": "-111.03900", "AS": 13476, "ip": "153.90.1.35", "latitude": "45.67970", "type": "client"}, {"city": "Bozeman", "name": "153.90.1.33", "country": "US", "region": "Montana", "ISP": "Montana State University", "longitude": "-111.03900", "AS": 13476, "ip": "153.90.1.33", "latitude": "45.67970", "type": "router"}, {"city": "Bozeman", "name": "rn-edge-ajm-edge.u.montana.edu", "country": "US", "region": "Montana", "ISP": "Montana State University", "longitude": "-110.90130", "AS": 13476, "ip": "192.105.205.192", "latitude": "45.62800", "type": "router"}, {"city": "Seattle", "name": "ae0--604.icar-sttl1-2.infra.pnw-gigapop.net", "country": "US", "region": "Washington", "ISP": "University of Washington", "longitude": "-122.34220", "AS": 101, "ip": "209.124.188.212", "latitude": "47.63440", "type": "router"}, {"city": "Eugene", "name": "planetlab1.cs.uoregon.edu", "country": "US", "region": "Oregon", "ISP": "University of Oregon", "longitude": "-123.05470", "AS": 3582, "ip": "128.223.8.111", "latitude": "44.03640", "type": "client"}, {"city": "Warsaw", "name": "planetlab4.mini.pw.edu.pl", "country": "PL", "region": "Masovian Voivodeship", "ISP": "Politechnika Warszawska", "longitude": "21.01180", "AS": 12464, "ip": "194.29.178.14", "latitude": "52.22980", "type": "client"}, {"city": "Varsovia", "name": "dlink-dgs6604-008.mini.pw.edu.pl", "country": "PL", "region": "Mazowieckie", "ISP": "Politechnika Warszawska", "longitude": "21.01180", "AS": 12464, "ip": "194.29.178.254", "latitude": "52.22980", "type": "router"}, {"city": "", "name": "mini-coi.rtr.pw.edu.pl", "country": "PL", "region": "", "ISP": "Politechnika Warszawska", "longitude": "21.01670", "AS": 12464, "ip": "194.29.132.1", "latitude": "52.23330", "type": "router"}, {"city": "", "name": "194.29.132.164", "country": "PL", "region": "", "ISP": "Politechnika Warszawska", "longitude": "21.01670", "AS": 12464, "ip": "194.29.132.164", "latitude": "52.23330", "type": "router"}, {"city": "Kolo", "name": "pw-r1-ge2-0-8-501.warman.nask.pl", "country": "PL", "region": "Mazowieckie", "ISP": "NAUKOWA I AKADEMICKA SIEC KOMPUTEROWA INSTYTUT BADAWCZY", "longitude": "20.94900", "AS": 1887, "ip": "148.81.253.69", "latitude": "52.24570", "type": "router"}, {"city": "Lodz", "name": "z-nask.poznan-gw3.10Gb.rtr.pionier.gov.pl", "country": "PL", "region": "Greater Poland Voivodeship", "ISP": "Institute of Bioorganic Chemistry Polish Academy of Science, Poznan Supercomputing and Networking Center", "longitude": "16.74240", "AS": 8501, "ip": "212.191.224.73", "latitude": "52.25550", "type": "router"}, {"city": "", "name": "pionier-ias-geant-gw-1.poz.pl.geant.net", "country": "GB", "region": "", "ISP": "GEANT Limited", "longitude": "-0.12240", "AS": 21320, "ip": "83.97.88.121", "latitude": "51.49640", "type": "router"}, {"city": "Frankfurt Am Main", "name": "google.mx1.fra.de.geant.net", "country": "Germany", "region": "Hessen", "ISP": "GEANT Limited", "longitude": "8.68420", "AS": 20965, "ip": "62.40.125.201", "latitude": "50.11550", "type": "router"}, {"city": "Frankfurt Am Main", "name": "192.229.134.89", "country": "Germany", "region": "Hessen", "ISP": "MCI Communications Services, Inc. d/b/a Verizon Business", "longitude": "8.68330", "AS": 15133, "ip": "192.229.134.89", "latitude": "50.11670", "type": "router"}, {"city": "London", "name": "93.184.221.200", "country": "United Kingdom", "region": "England", "ISP": "EdgeCast NetBlk", "longitude": "-0.12570", "AS": 15133, "ip": "93.184.221.200", "latitude": "51.50850", "type": "server"}, {"city": "Liberec", "name": "planetlab2.cesnet.cz", "country": "CZ", "region": "Liberecky kraj", "ISP": "CESNET z.s.p.o.", "longitude": "15.06530", "AS": 2852, "ip": "195.113.161.83", "latitude": "50.76390", "type": "client"}, {"city": "Liberec", "name": "195.113.161.65", "country": "Czech Republic", "region": "Liberecky kraj", "ISP": "CESNET z.s.p.o.", "longitude": "15.06530", "AS": 2852, "ip": "195.113.161.65", "latitude": "50.76390", "type": "router"}, {"city": "Liberec", "name": "195.113.235.89", "country": "Czech Republic", "region": "Liberecky kraj", "ISP": "CESNET z.s.p.o.", "longitude": "14.41120", "AS": 2852, "ip": "195.113.235.89", "latitude": "50.08480", "type": "router"}, {"city": "Prague", "name": "cesnet-ias-geant-gw.pra.cz.geant.net", "country": "Czech Republic", "region": "Praha, hlavni mesto", "ISP": "GEANT Limited", "longitude": "14.42080", "AS": 21320, "ip": "83.97.88.41", "latitude": "50.08800", "type": "router"}, {"city": "Liberec", "name": "planetlab3.cesnet.cz", "country": "Czech Republic", "region": "Liberecky kraj", "ISP": "CESNET z.s.p.o.", "longitude": "15.06530", "AS": 2852, "ip": "195.113.161.84", "latitude": "50.76390", "type": "client"}, {"city": "Zurich", "name": "planetlab3.inf.ethz.ch", "country": "CH", "region": "Zurich", "ISP": "SWITCH", "longitude": "8.55000", "AS": 559, "ip": "192.33.90.68", "latitude": "47.36670", "type": "client"}, {"city": "Zurich", "name": "192.33.90.65", "country": "Switzerland", "region": "Zurich", "ISP": "Swiss Federal Institute of Technology Zurich", "longitude": "8.55000", "AS": 559, "ip": "192.33.90.65", "latitude": "47.36670", "type": "router"}, {"city": "Zurich", "name": "192.33.92.166", "country": "Switzerland", "region": "Zurich", "ISP": "Swiss Federal Institute of Technology Zurich", "longitude": "8.55000", "AS": 559, "ip": "192.33.92.166", "latitude": "47.36670", "type": "router"}, {"city": "Zurich", "name": "130.59.36.34", "country": "Switzerland", "region": "Zurich", "ISP": "Swiss Federal Institute of Technology Zurich", "longitude": "8.55000", "AS": 559, "ip": "130.59.36.34", "latitude": "47.36670", "type": "router"}, {"city": "Zurich", "name": "equinix-zurich.ch.net.dtag.de", "country": "Switzerland", "region": "Zurich", "ISP": "Equinix (Switzerland) AG", "longitude": "8.15510", "AS": 8235, "ip": "194.42.48.56", "latitude": "47.14490", "type": "router"}, {"city": "", "name": "217.239.52.146", "country": "DE", "region": "", "ISP": "Deutsche Telekom AG", "longitude": "9.49100", "AS": 3320, "ip": "217.239.52.146", "latitude": "51.29930", "type": "router"}, {"city": "Frankfurt", "name": "62.157.248.186", "country": "Germany", "region": "Bayern", "ISP": "Deutsche Telekom AG", "longitude": "10.53330", "AS": 3320, "ip": "62.157.248.186", "latitude": "49.68330", "type": "router"}, {"city": "Liberec", "name": "planetlab1.cesnet.cz", "country": "Czech Republic", "region": "Liberecky kraj", "ISP": "CESNET z.s.p.o.", "longitude": "15.06530", "AS": 2852, "ip": "195.113.161.82", "latitude": "50.76390", "type": "client"}, {"city": "Frankfurt Am Main", "name": "ae31.core1.fra.edgecastcdn.net", "country": "Germany", "region": "Hessen", "ISP": "DE-CIX Management GmbH", "longitude": "8.68330", "AS": 51531, "ip": "80.81.194.37", "latitude": "50.11670", "type": "router"}, {"city": "Denver", "name": "planetlab2.cs.du.edu", "country": "US", "region": "Colorado", "ISP": "University Corporation for Atmospheric Research", "longitude": "-104.98470", "AS": 14041, "ip": "130.253.21.123", "latitude": "39.73920", "type": "router"}, {"city": "Denver", "name": "130.253.21.126", "country": "US", "region": "Colorado", "ISP": "University Corporation for Atmospheric Research", "longitude": "-104.98470", "AS": 14041, "ip": "130.253.21.126", "latitude": "39.73920", "type": "router"}, {"city": "Denver", "name": "130.253.101.10", "country": "US", "region": "Colorado", "ISP": "University Corporation for Atmospheric Research", "longitude": "-104.98470", "AS": 14041, "ip": "130.253.101.10", "latitude": "39.73920", "type": "router"}, {"city": "", "name": "192.43.217.218", "country": "US", "region": "", "ISP": "University Corporation for Atmospheric Research", "longitude": "-97.82200", "AS": 14041, "ip": "192.43.217.218", "latitude": "37.75100", "type": "router"}, {"city": "Ann Arbor", "name": "et-7-0-0.3452.rtr.eqch.net.internet2.edu", "country": "US", "region": "Michigan", "ISP": "Internet2", "longitude": "-83.71330", "AS": 11164, "ip": "198.71.47.129", "latitude": "42.27340", "type": "router"}, {"city": "", "name": "162.252.69.187", "country": "US", "region": "", "ISP": "unknown", "longitude": "-97.82200", "AS": -1, "ip": "162.252.69.187", "latitude": "37.75100", "type": "router"}, {"city": "Santa Monica", "name": "192.229.227.135", "country": "US", "region": "California", "ISP": "MCI Communications Services, Inc. d/b/a Verizon Business", "longitude": "-118.46820", "AS": 15133, "ip": "192.229.227.135", "latitude": "34.01190", "type": "router"}, {"city": "Ashburn", "name": "72.21.81.200", "country": "United States", "region": "Virginia", "ISP": "MCI Communications Services, Inc. d/b/a Verizon Business", "longitude": "-77.53900", "AS": 15133, "ip": "72.21.81.200", "latitude": "39.01800", "type": "server"}, {"city": "", "name": "xe-0-0-3.core-l3.frgp.net", "country": "", "region": "", "ISP": "University Corporation for Atmospheric Research", "longitude": "-97.82200", "AS": 14041, "ip": "192.43.217.194", "latitude": "37.75100", "type": "router"}, {"city": "Madison", "name": "planetlab3.wail.wisc.edu", "country": "US", "region": "Wisconsin", "ISP": "University of Wisconsin Madison", "longitude": "-89.40120", "AS": 59, "ip": "198.133.224.147", "latitude": "43.07310", "type": "client"}, {"city": "Madison", "name": "gw-303.cs.wisc.edu", "country": "US", "region": "Wisconsin", "ISP": "University of Wisconsin Madison", "longitude": "-89.40120", "AS": 59, "ip": "198.133.224.129", "latitude": "43.07310", "type": "router"}, {"city": "Madison", "name": "f-cssc-2360-1a-int.cs.wisc.edu", "country": "US", "region": "Wisconsin", "ISP": "University of Wisconsin Madison", "longitude": "-89.40120", "AS": 59, "ip": "128.105.1.50", "latitude": "43.07310", "type": "router"}, {"city": "Madison", "name": "te-1-1-29.r-cssc-2360-core.cs.wisc.edu", "country": "US", "region": "Wisconsin", "ISP": "University of Wisconsin Madison", "longitude": "-89.40120", "AS": 59, "ip": "128.105.1.45", "latitude": "43.07310", "type": "router"}, {"city": "Madison", "name": "rx-animal-226-2-core-Bundle-Ether2-493.net.wisc.edu", "country": "US", "region": "Wisconsin", "ISP": "University of Wisconsin Madison", "longitude": "-89.40120", "AS": 59, "ip": "144.92.128.195", "latitude": "43.07310", "type": "router"}, {"city": "Afton", "name": "143.235.40.0", "country": "US", "region": "Wisconsin", "ISP": "University of Wisconsin System", "longitude": "-89.40670", "AS": 3128, "ip": "143.235.40.0", "latitude": "43.06110", "type": "router"}, {"city": "Afton", "name": "143.235.42.5", "country": "US", "region": "Wisconsin", "ISP": "University of Wisconsin System", "longitude": "-89.40670", "AS": 3128, "ip": "143.235.42.5", "latitude": "43.06110", "type": "router"}, {"city": "Middleton", "name": "205.213.119.30", "country": "US", "region": "Wisconsin", "ISP": "WiscNet", "longitude": "-89.52070", "AS": 2381, "ip": "205.213.119.30", "latitude": "43.11840", "type": "router"}, {"city": "Santa Monica", "name": "192.229.225.133", "country": "US", "region": "California", "ISP": "MCI Communications Services, Inc. d/b/a Verizon Business", "longitude": "-118.46820", "AS": 15133, "ip": "192.229.225.133", "latitude": "34.01190", "type": "router"}, {"city": "Madison", "name": "rx-cssc-b380-1-core-Bundle-Ether2-493.net.wisc.edu", "country": "US", "region": "Wisconsin", "ISP": "University of Wisconsin Madison", "longitude": "-89.40120", "AS": 59, "ip": "144.92.128.194", "latitude": "43.07310", "type": "router"}, {"city": "", "name": "143.235.40.2", "country": "", "region": "", "ISP": "University of Wisconsin System", "longitude": "-89.40670", "AS": 3128, "ip": "143.235.40.2", "latitude": "43.06110", "type": "router"}, {"city": "Afton", "name": "143.235.42.7", "country": "US", "region": "Wisconsin", "ISP": "University of Wisconsin System", "longitude": "-89.40670", "AS": 3128, "ip": "143.235.42.7", "latitude": "43.06110", "type": "router"}, {"city": "Denver", "name": "planetlab1.cs.du.edu", "country": "US", "region": "Colorado", "ISP": "University Corporation for Atmospheric Research", "longitude": "-104.98470", "AS": 14041, "ip": "130.253.21.121", "latitude": "39.73920", "type": "client"}, {"city": "Chicago", "name": "core1.ord.edgecastcdn.NET", "country": "United States", "region": "Illinois", "ISP": "Equinix, Inc.", "longitude": "-87.65005", "AS": 32007, "ip": "206.223.119.59", "latitude": "41.85003", "type": "router"}, {"city": "Santa Monica", "name": "192.229.227.133", "country": "US", "region": "California", "ISP": "MCI Communications Services, Inc. d/b/a Verizon Business", "longitude": "-118.46820", "AS": 15133, "ip": "192.229.227.133", "latitude": "34.01190", "type": "router"}, {"city": "West Lafayette", "name": "planetlab2.cs.purdue.edu", "country": "US", "region": "Indiana", "ISP": "Purdue University", "longitude": "-86.90810", "AS": 17, "ip": "128.10.18.53", "latitude": "40.42590", "type": "client"}, {"city": "West Lafayette", "name": "lwsn-b143-c6504e-01-po11-tcom.cs.purdue.edu", "country": "US", "region": "Indiana", "ISP": "Purdue University", "longitude": "-86.90810", "AS": 17, "ip": "128.10.127.251", "latitude": "40.42590", "type": "router"}, {"city": "West Lafayette", "name": "192.5.40.8", "country": "United States", "region": "Indiana", "ISP": "Purdue University", "longitude": "-86.90810", "AS": 17, "ip": "192.5.40.8", "latitude": "40.42590", "type": "router"}, {"city": "West Lafayette", "name": "indiana-gigapop-ctc-internet-151.tcom.purdue.edu", "country": "United States", "region": "Indiana", "ISP": "Purdue University", "longitude": "-86.87740", "AS": 17, "ip": "192.5.40.82", "latitude": "40.36890", "type": "router"}, {"city": "Bloomington", "name": "149.165.183.90", "country": "United States", "region": "Indiana", "ISP": "Indiana University", "longitude": "-86.45550", "AS": 19782, "ip": "149.165.183.90", "latitude": "39.24990", "type": "router"}, {"city": "West Lafayette", "name": "planetlab1.cs.purdue.edu", "country": "US", "region": "Indiana", "ISP": "Purdue University", "longitude": "-86.90810", "AS": 17, "ip": "128.10.18.52", "latitude": "40.42590", "type": "client"}, {"city": "West Lafayette", "name": "freh-g2-c9006-01-be10.tcom.purdue.edu", "country": "United States", "region": "Indiana", "ISP": "Purdue University", "longitude": "-86.87740", "AS": 17, "ip": "192.5.40.10", "latitude": "40.36890", "type": "router"}, {"city": "West Lafayette", "name": "tel-210-c9006-01-te0-0-0-3.tcom.purdue.edu", "country": "United States", "region": "Indiana", "ISP": "Purdue University", "longitude": "-86.87740", "AS": 17, "ip": "192.5.40.65", "latitude": "40.36890", "type": "router"}, {"city": "Santa Monica", "name": "192.229.225.135", "country": "US", "region": "California", "ISP": "MCI Communications Services, Inc. d/b/a Verizon Business", "longitude": "-118.46820", "AS": 15133, "ip": "192.229.225.135", "latitude": "34.01190", "type": "router"}, {"city": "Richardson", "name": "planetlab2.utdallas.edu", "country": "US", "region": "Texas", "ISP": "University of Texas at Dallas", "longitude": "-96.72970", "AS": 20162, "ip": "129.110.125.52", "latitude": "32.94820", "type": "client"}, {"city": "Richardson", "name": "129.110.125.1", "country": "US", "region": "Texas", "ISP": "University of Texas at Dallas", "longitude": "-96.72970", "AS": 20162, "ip": "129.110.125.1", "latitude": "32.94820", "type": "router"}, {"city": "Santa Teresa", "name": "74.200.176.38", "country": "US", "region": "New Mexico", "ISP": "North Texas GigaPOP", "longitude": "-106.80820", "AS": 22645, "ip": "74.200.176.38", "latitude": "31.94600", "type": "router"}, {"city": "Hayfield", "name": "v700.core1.dal1.he.net", "country": "US", "region": "Minnesota", "ISP": "Hurricane Electric, Inc.", "longitude": "-92.79170", "AS": 6939, "ip": "216.66.73.225", "latitude": "43.89900", "type": "router"}, {"city": "", "name": "edgecast-as15133.10gigabitethernet1-1-41.switch2.dal1.he.net", "country": "", "region": "", "ISP": "Hurricane Electric, Inc.", "longitude": "-97.09890", "AS": 6939, "ip": "216.66.74.14", "latitude": "31.62860", "type": "router"}, {"city": "Stillwater", "name": "planetlab1.cs.okstate.edu", "country": "United States", "region": "Oklahoma", "ISP": "Oklahoma Network for Education Enrichment and", "longitude": "-97.05840", "AS": 5078, "ip": "139.78.141.243", "latitude": "36.11560", "type": "client"}, {"city": "Stillwater", "name": "ro-mathscience.net.okstate.edu", "country": "United States", "region": "Oklahoma", "ISP": "Oklahoma Network for Education Enrichment and", "longitude": "-97.05840", "AS": 5078, "ip": "139.78.143.254", "latitude": "36.11560", "type": "router"}, {"city": "Stillwater", "name": "139.78.1.110", "country": "United States", "region": "Oklahoma", "ISP": "Oklahoma Network for Education Enrichment and", "longitude": "-97.05840", "AS": 5078, "ip": "139.78.1.110", "latitude": "36.11560", "type": "router"}, {"city": "Stillwater", "name": "139.78.1.104", "country": "United States", "region": "Oklahoma", "ISP": "Oklahoma Network for Education Enrichment and", "longitude": "-97.05840", "AS": 5078, "ip": "139.78.1.104", "latitude": "36.11560", "type": "router"}, {"city": "Stillwater", "name": "156.110.119.9", "country": "United States", "region": "Oklahoma", "ISP": "Oklahoma Network for Education Enrichment and", "longitude": "-96.93980", "AS": 5078, "ip": "156.110.119.9", "latitude": "35.39810", "type": "router"}, {"city": "Stillwater", "name": "164.58.244.16", "country": "United States", "region": "Oklahoma", "ISP": "Oklahoma Network for Education Enrichment and", "longitude": "-97.50330", "AS": 5078, "ip": "164.58.244.16", "latitude": "35.47620", "type": "router"}, {"city": "Stillwater", "name": "164.58.244.47", "country": "United States", "region": "Oklahoma", "ISP": "Oklahoma Network for Education Enrichment and", "longitude": "-97.50330", "AS": 5078, "ip": "164.58.244.47", "latitude": "35.47620", "type": "router"}, {"city": "Edgar", "name": "216.56.50.37", "country": "US", "region": "Wisconsin", "ISP": "WiscNet", "longitude": "-90.01920", "AS": 2381, "ip": "216.56.50.37", "latitude": "44.90020", "type": "router"}, {"city": "Bloomington", "name": "pl2.ucs.indiana.edu", "country": "US", "region": "Indiana", "ISP": "Indiana University", "longitude": "-86.61750", "AS": 87, "ip": "156.56.250.227", "latitude": "39.07900", "type": "router"}, {"city": "Bloomington", "name": "xe-0-2-2.560.cr3.bldc.net.uits.iu.edu", "country": "US", "region": "Indiana", "ISP": "Indiana University", "longitude": "-86.61750", "AS": 87, "ip": "156.56.250.253", "latitude": "39.07900", "type": "router"}, {"city": "Indianapolis", "name": "ae-13.0.br2.bldc.net.uits.iu.edu", "country": "US", "region": "Indiana", "ISP": "Indiana University", "longitude": "-86.16650", "AS": 87, "ip": "134.68.3.58", "latitude": "39.78510", "type": "router"}, {"city": "Bloomington", "name": "149.165.183.13", "country": "US", "region": "Indiana", "ISP": "Indiana University", "longitude": "-86.45550", "AS": 19782, "ip": "149.165.183.13", "latitude": "39.24990", "type": "router"}, {"city": "Bloomington", "name": "lo-0.1.rtr.ictc.indiana.gigapop.net", "country": "US", "region": "Indiana", "ISP": "Indiana University", "longitude": "-86.45550", "AS": 19782, "ip": "149.165.255.1", "latitude": "39.24990", "type": "router"}, {"city": "Ann Arbor", "name": "planetlab3.eecs.umich.edu", "country": "United States", "region": "Michigan", "ISP": "University of Michigan", "longitude": "-83.71450", "AS": 36375, "ip": "141.212.113.178", "latitude": "42.29230", "type": "client"}, {"city": "Ann Arbor", "name": "141.212.113.1", "country": "United States", "region": "Michigan", "ISP": "University of Michigan", "longitude": "-83.71450", "AS": 36375, "ip": "141.212.113.1", "latitude": "42.29230", "type": "router"}, {"city": "Ann Arbor", "name": "l3-fxb-lsa.r-lsa.umnet.umich.edu", "country": "United States", "region": "Michigan", "ISP": "University of Michigan", "longitude": "-83.71130", "AS": 36375, "ip": "141.211.0.150", "latitude": "42.32410", "type": "router"}, {"city": "Ann Arbor", "name": "l3-lsa-seb.r-seb.umnet.umich.edu", "country": "United States", "region": "Michigan", "ISP": "University of Michigan", "longitude": "-83.71130", "AS": 36375, "ip": "141.211.0.162", "latitude": "42.32410", "type": "router"}, {"city": "Ann Arbor", "name": "l3-binseb-seb-ipsvrf.r-bin-seb.umnet.umich.edu", "country": "United States", "region": "Michigan", "ISP": "University of Michigan", "longitude": "-83.71130", "AS": 36375, "ip": "192.12.80.138", "latitude": "42.32410", "type": "router"}, {"city": "Ann Arbor", "name": "ae4.anar-cor-cath.merit.edu", "country": "United States", "region": "Michigan", "ISP": "University of Michigan", "longitude": "-83.71130", "AS": 36375, "ip": "192.12.80.33", "latitude": "42.32410", "type": "router"}, {"city": "Ann Arbor", "name": "ae1x22.sfld-cor-123net.mich.net", "country": "United States", "region": "Michigan", "ISP": "Merit Network Inc.", "longitude": "-83.71330", "AS": 237, "ip": "198.108.23.50", "latitude": "42.27340", "type": "router"}, {"city": "Ann Arbor", "name": "et-9-0-0.1241.rtr.ashb.net.internet2.edu", "country": "US", "region": "Michigan", "ISP": "Internet2", "longitude": "-83.71330", "AS": 11164, "ip": "198.71.47.25", "latitude": "42.27340", "type": "router"}, {"city": "Ann Arbor", "name": "198.71.47.249", "country": "United States", "region": "Michigan", "ISP": "Internet2", "longitude": "-83.71330", "AS": 11164, "ip": "198.71.47.249", "latitude": "42.27340", "type": "router"}, {"city": "Ashburn", "name": "152.195.64.133", "country": "United States", "region": "Virginia", "ISP": "MCI Communications Services, Inc. d/b/a Verizon Business", "longitude": "-77.53900", "AS": 15133, "ip": "152.195.64.133", "latitude": "39.01800", "type": "router"}, {"city": "Ann Arbor", "name": "planetlab5.eecs.umich.edu", "country": "US", "region": "Michigan", "ISP": "University of Michigan", "longitude": "-83.71450", "AS": 36375, "ip": "141.212.113.180", "latitude": "42.29230", "type": "client"}, {"city": "Pittsburgh", "name": "71.206.236.67", "country": "US", "region": "Pennsylvania", "ISP": "Comcast Cable Communications, LLC", "longitude": "-79.99590", "AS": 7922, "ip": "71.206.236.67", "latitude": "40.44060", "type": "client"}, {"city": "Pittsburgh", "name": "96.120.62.169", "country": "United States", "region": "Pennsylvania", "ISP": "Comcast Cable Communications, LLC", "longitude": "-79.99590", "AS": 7922, "ip": "96.120.62.169", "latitude": "40.44060", "type": "router"}, {"city": "", "name": "68.86.102.57", "country": "", "region": "", "ISP": "Comcast Cable Communications, LLC", "longitude": "-97.82200", "AS": 7922, "ip": "68.86.102.57", "latitude": "37.75100", "type": "router"}, {"city": "", "name": "68.86.100.26", "country": "", "region": "", "ISP": "Comcast Cable Communications, LLC", "longitude": "-97.82200", "AS": 7922, "ip": "68.86.100.26", "latitude": "37.75100", "type": "router"}, {"city": "Coatesville", "name": "68.86.147.109", "country": "United States", "region": "Pennsylvania", "ISP": "Comcast Cable Communications, LLC", "longitude": "-75.82670", "AS": 7922, "ip": "68.86.147.109", "latitude": "39.96830", "type": "router"}, {"city": "Chicago", "name": "68.86.91.25", "country": "US", "region": "Illinois", "ISP": "Comcast Cable Communications, LLC", "longitude": "-87.62980", "AS": 7922, "ip": "68.86.91.25", "latitude": "41.87810", "type": "router"}, {"city": "Chicago", "name": "68.86.86.34", "country": "US", "region": "Illinois", "ISP": "Comcast Cable Communications, LLC", "longitude": "-87.62310", "AS": 7922, "ip": "68.86.86.34", "latitude": "41.85290", "type": "router"}, {"city": "Ashburn", "name": "75.149.229.98", "country": "US", "region": "Virginia", "ISP": "Comcast Cable Communications, LLC", "longitude": "-77.48740", "AS": 7922, "ip": "75.149.229.98", "latitude": "39.04380", "type": "router"}, {"city": "Ashburn", "name": "72.21.81.200", "country": "United States", "region": "Virginia", "ISP": "MCI Communications Services, Inc. d/b/a Verizon Business", "longitude": "-77.53900", "AS": 15133, "ip": "72.21.81.200", "latitude": "39.01800", "type": "server"}, {"city": "", "name": "129.10.120.193", "country": "", "region": "", "ISP": "Northeastern University", "longitude": "-71.08780", "AS": 156, "ip": "129.10.120.193", "latitude": "42.34240", "type": "router"}, {"city": "Boston", "name": "core01-120.ccs.neu.edu", "country": "US", "region": "Massachusetts", "ISP": "Northeastern University", "longitude": "-71.08780", "AS": 156, "ip": "129.10.120.2", "latitude": "42.34240", "type": "router"}, {"city": "Hartford", "name": "nox1sumgw1-neu-cps.nox.org", "country": "US", "region": "Connecticut", "ISP": "Harvard University", "longitude": "-72.67450", "AS": 10578, "ip": "207.210.142.101", "latitude": "41.76860", "type": "router"}, {"city": "Ann Arbor", "name": "et-10-0-0.122.rtr.eqch.net.internet2.edu", "country": "US", "region": "Michigan", "ISP": "Internet2", "longitude": "-83.71330", "AS": 11164, "ip": "198.71.47.61", "latitude": "42.27340", "type": "router"}, {"city": "Ann Arbor", "name": "198.71.47.251", "country": "US", "region": "Michigan", "ISP": "Internet2", "longitude": "-83.71330", "AS": 11164, "ip": "198.71.47.251", "latitude": "42.27340", "type": "router"}, {"city": "Santa Monica", "name": "192.229.227.133", "country": "US", "region": "California", "ISP": "MCI Communications Services, Inc. d/b/a Verizon Business", "longitude": "-118.46820", "AS": 15133, "ip": "192.229.227.133", "latitude": "34.01190", "type": "router"}, {"city": "Santa Monica", "name": "192.229.227.135", "country": "US", "region": "California", "ISP": "MCI Communications Services, Inc. d/b/a Verizon Business", "longitude": "-118.46820", "AS": 15133, "ip": "192.229.227.135", "latitude": "34.01190", "type": "router"}, {"city": "Ottawa", "name": "pl1.rcc.uottawa.ca", "country": "CA", "region": "Ontario", "ISP": "University of Ottawa", "longitude": "-75.68440", "AS": 25826, "ip": "216.48.80.12", "latitude": "45.42890", "type": "client"}, {"city": "Ottawa", "name": "216.48.80.1", "country": "CA", "region": "Ontario", "ISP": "University of Ottawa", "longitude": "-75.68440", "AS": 25826, "ip": "216.48.80.1", "latitude": "45.42890", "type": "router"}, {"city": "Kingston", "name": "66.97.17.5", "country": "CA", "region": "Ontario", "ISP": "ORANO", "longitude": "-77.55000", "AS": 26677, "ip": "66.97.17.5", "latitude": "44.30000", "type": "router"}, {"city": "Toronto", "name": "be4832.ccr21.yyz02.atlas.cogentco.com", "country": "CA", "region": "Ontario", "ISP": "Cogent Communications", "longitude": "-79.39950", "AS": 174, "ip": "38.88.241.17", "latitude": "43.64040", "type": "router"}, {"city": "", "name": "be2993.ccr21.cle04.atlas.cogentco.com", "country": "US", "region": "", "ISP": "Cogent Communications", "longitude": "-97.82200", "AS": 174, "ip": "154.54.31.225", "latitude": "37.75100", "type": "router"}, {"city": "", "name": "be2717.ccr41.ord01.atlas.cogentco.com", "country": "US", "region": "", "ISP": "Cogent Communications", "longitude": "-97.82200", "AS": 174, "ip": "154.54.6.221", "latitude": "37.75100", "type": "router"}, {"city": "", "name": "be2765.ccr41.ord03.atlas.cogentco.com", "country": "US", "region": "", "ISP": "Cogent Communications", "longitude": "-97.82200", "AS": 174, "ip": "154.54.45.18", "latitude": "37.75100", "type": "router"}, {"city": "", "name": "telia.ord03.atlas.cogentco.com", "country": "US", "region": "", "ISP": "Cogent Communications", "longitude": "-97.82200", "AS": 174, "ip": "154.54.12.34", "latitude": "37.75100", "type": "router"}, {"city": "", "name": "edgecast-ic-315150-chi-b21.c.telia.net", "country": "DE", "region": "", "ISP": "Telia Company AB", "longitude": "9.49100", "AS": 1299, "ip": "213.248.101.106", "latitude": "51.29930", "type": "router"}, {"city": "Lowell", "name": "planetlab2.cs.uml.edu", "country": "United States", "region": "Massachusetts", "ISP": "University of Massachusetts - Lowell", "longitude": "-71.35060", "AS": 46905, "ip": "129.63.159.102", "latitude": "42.65230", "type": "client"}, {"city": "Lowell", "name": "129.63.159.254", "country": "United States", "region": "Massachusetts", "ISP": "University of Massachusetts - Lowell", "longitude": "-71.35060", "AS": 46905, "ip": "129.63.159.254", "latitude": "42.65230", "type": "router"}, {"city": "Shrewsbury", "name": "69.16.3.7", "country": "United States", "region": "Massachusetts", "ISP": "University of Massachusettes", "longitude": "-71.72230", "AS": 1968, "ip": "69.16.3.7", "latitude": "42.28520", "type": "router"}, {"city": "Boston", "name": "bst-edge-05.inet.qwest.net", "country": "United States", "region": "Massachusetts", "ISP": "Qwest Communications Company, LLC", "longitude": "-71.05980", "AS": 209, "ip": "63.159.137.237", "latitude": "42.35840", "type": "router"}, {"city": "Washington", "name": "dcp-brdr-04.inet.qwest.net", "country": "United States", "region": "District of Columbia", "ISP": "Qwest Communications Company LLC", "longitude": "-77.03640", "AS": 209, "ip": "67.14.28.18", "latitude": "38.89510", "type": "router"}, {"city": "Ashburn", "name": "68.232.36.100", "country": "United States", "region": "Virginia", "ISP": "MCI Communications Services, Inc. d/b/a Verizon Business", "longitude": "-77.53900", "AS": 15133, "ip": "68.232.36.100", "latitude": "39.01800", "type": "router"}, {"city": "Atlanta", "name": "node1.planetlab.mathcs.emory.edu", "country": "US", "region": "Georgia", "ISP": "Emory University", "longitude": "-84.32480", "AS": 3512, "ip": "170.140.119.69", "latitude": "33.79520", "type": "client"}, {"city": "Atlanta", "name": "170.140.119.66", "country": "US", "region": "Georgia", "ISP": "Emory University", "longitude": "-84.32480", "AS": 3512, "ip": "170.140.119.66", "latitude": "33.79520", "type": "router"}, {"city": "Atlanta", "name": "163.246.147.104", "country": "US", "region": "Georgia", "ISP": "Emory University", "longitude": "-84.32480", "AS": 3512, "ip": "163.246.147.104", "latitude": "33.79520", "type": "router"}, {"city": "Atlanta", "name": "170.140.0.253", "country": "US", "region": "Georgia", "ISP": "Emory University", "longitude": "-84.32480", "AS": 3512, "ip": "170.140.0.253", "latitude": "33.79520", "type": "router"}, {"city": "Atlanta", "name": "te0-19-0-6.ccr41.atl04.atlas.cogentco.com", "country": "US", "region": "Georgia", "ISP": "Cogent Communications", "longitude": "-84.32440", "AS": 174, "ip": "38.104.182.41", "latitude": "33.82740", "type": "router"}, {"city": "", "name": "213.248.101.113", "country": "DE", "region": "", "ISP": "Telia Company AB", "longitude": "9.49100", "AS": 1299, "ip": "213.248.101.113", "latitude": "51.29930", "type": "router"}, {"city": "", "name": "edgecast-ic-157044-atl-bb1.c.telia.net", "country": "", "region": "", "ISP": "Telia Company AB", "longitude": "8.00000", "AS": 1299, "ip": "213.248.81.114", "latitude": "47.00000", "type": "router"}, {"city": "Atlanta", "name": "170.140.0.45", "country": "US", "region": "Georgia", "ISP": "Emory University", "longitude": "-84.32480", "AS": 3512, "ip": "170.140.0.45", "latitude": "33.79520", "type": "router"}, {"city": "", "name": "edgecast-ic-153111-atl-bb1.c.telia.net", "country": "EU", "region": "", "ISP": "Telia Company AB", "longitude": "8.00000", "AS": 1299, "ip": "213.248.102.170", "latitude": "47.00000", "type": "router"}, {"city": "", "name": "edgecast-ic-305803-atl-bb1.c.telia.net", "country": "EU", "region": "", "ISP": "Telia Company AB", "longitude": "8.00000", "AS": 1299, "ip": "62.115.42.78", "latitude": "47.00000", "type": "router"}, {"city": "", "name": "edgecast-ic-155238-atl-bb1.c.telia.net", "country": "EU", "region": "", "ISP": "Telia Company AB", "longitude": "8.00000", "AS": 1299, "ip": "80.239.195.186", "latitude": "47.00000", "type": "router"}, {"city": "Atlanta", "name": "node2.planetlab.mathcs.emory.edu", "country": "US", "region": "Georgia", "ISP": "Emory University", "longitude": "-84.32480", "AS": 3512, "ip": "170.140.119.70", "latitude": "33.79520", "type": "client"}, {"city": "College Park", "name": "salt.planetlab.cs.umd.edu", "country": "US", "region": "Maryland", "ISP": "University of Maryland", "longitude": "-76.93690", "AS": 27, "ip": "128.8.126.111", "latitude": "38.98070", "type": "client"}, {"city": "College Park", "name": "router-126.cs.umd.edu", "country": "US", "region": "Maryland", "ISP": "University of Maryland", "longitude": "-76.93690", "AS": 27, "ip": "128.8.126.1", "latitude": "38.98070", "type": "router"}, {"city": "Takoma Park", "name": "128.8.239.69", "country": "US", "region": "Maryland", "ISP": "University of Maryland", "longitude": "-77.00400", "AS": 27, "ip": "128.8.239.69", "latitude": "38.98270", "type": "router"}, {"city": "College Park", "name": "gi3-1.ptx-core-r1.net.umd.edu", "country": "US", "region": "Maryland", "ISP": "University of Maryland", "longitude": "-76.93170", "AS": 27, "ip": "129.2.0.113", "latitude": "39.00120", "type": "router"}, {"city": "College Park", "name": "gi3-1.css-fw-r1.net.umd.edu", "country": "US", "region": "Maryland", "ISP": "University of Maryland", "longitude": "-76.93170", "AS": 27, "ip": "129.2.0.82", "latitude": "39.00120", "type": "router"}, {"city": "College Park", "name": "te0-1-0.css-border-r1.net.umd.edu", "country": "US", "region": "Maryland", "ISP": "University of Maryland", "longitude": "-76.93690", "AS": 27, "ip": "128.8.0.226", "latitude": "38.98070", "type": "router"}, {"city": "College Park", "name": "xe-0-0-1-186.clpk-core.maxgigapop.net", "country": "US", "region": "Maryland", "ISP": "University of Maryland", "longitude": "-76.93170", "AS": 10886, "ip": "206.196.177.86", "latitude": "39.00120", "type": "router"}, {"city": "College Park", "name": "ae0.mcln-core.maxgigapop.net", "country": "US", "region": "Maryland", "ISP": "University of Maryland", "longitude": "-76.93170", "AS": 10886, "ip": "206.196.178.80", "latitude": "39.00120", "type": "router"}, {"city": "Stockholm", "name": "213.248.84.144", "country": "Sweden", "region": "Stockhoms Lan", "ISP": "Telia Company AB", "longitude": "18.06490", "AS": 1299, "ip": "213.248.84.144", "latitude": "59.33260", "type": "router"}, {"city": "", "name": "ash-bb3-link.telia.net", "country": "EU", "region": "", "ISP": "Telia Company AB", "longitude": "8.00000", "AS": 1299, "ip": "62.115.117.171", "latitude": "47.00000", "type": "router"}, {"city": "", "name": "80.91.248.161", "country": "", "region": "", "ISP": "Telia Company AB", "longitude": "8.00000", "AS": 1299, "ip": "80.91.248.161", "latitude": "47.00000", "type": "router"}, {"city": "Solna", "name": "edgecast-ic-152714-ash-bb1.c.telia.net", "country": "Sweden", "region": "Stockholm", "ISP": "Telia Company AB", "longitude": "17.99890", "AS": 1299, "ip": "195.12.254.74", "latitude": "59.36250", "type": "router"}, {"city": "", "name": "80.91.245.66", "country": "EU", "region": "", "ISP": "Telia Company AB", "longitude": "8.00000", "AS": 1299, "ip": "80.91.245.66", "latitude": "47.00000", "type": "router"}, {"city": "", "name": "planetlab2.pop-mg.rnp.br", "country": "BR", "region": "", "ISP": "Associa\u00e7\u00e3o Rede Nacional de Ensino e Pesquisa", "longitude": "-43.21920", "AS": 1916, "ip": "200.19.159.35", "latitude": "-22.83050", "type": "client"}, {"city": "", "name": "farofa-planetlab.pop-mg.rnp.br", "country": "BR", "region": "", "ISP": "Associa\u00e7\u00e3o Rede Nacional de Ensino e Pesquisa", "longitude": "-43.21920", "AS": 1916, "ip": "200.19.159.33", "latitude": "-22.83050", "type": "router"}, {"city": "", "name": "couve.pop-mg.rnp.br", "country": "BR", "region": "", "ISP": "Associa\u00e7\u00e3o Rede Nacional de Ensino e Pesquisa", "longitude": "-43.21920", "AS": 1916, "ip": "200.131.0.2", "latitude": "-22.83050", "type": "router"}, {"city": "", "name": "mg-lanmg.bkb.rnp.br", "country": "BR", "region": "", "ISP": "Associa\u00e7\u00e3o Rede Nacional de Ensino e Pesquisa", "longitude": "-43.21920", "AS": 1916, "ip": "200.143.253.161", "latitude": "-22.83050", "type": "router"}, {"city": "", "name": "sp2-mg-oi.bkb.rnp.br", "country": "BR", "region": "", "ISP": "Associa\u00e7\u00e3o Rede Nacional de Ensino e Pesquisa", "longitude": "-43.21920", "AS": 1916, "ip": "200.143.252.73", "latitude": "-22.83050", "type": "router"}, {"city": "", "name": "sp-sp2.bkb.rnp.br", "country": "BR", "region": "", "ISP": "Associa\u00e7\u00e3o Rede Nacional de Ensino e Pesquisa", "longitude": "-43.21920", "AS": 1916, "ip": "200.143.253.37", "latitude": "-22.83050", "type": "router"}, {"city": "Ashburn", "name": "198.32.122.20", "country": "United States", "region": "Virginia", "ISP": "MCI Communications Services Inc. d/b/a Verizon Business", "longitude": "-77.48850", "AS": 15133, "ip": "198.32.122.20", "latitude": "39.03410", "type": "router"}, {"city": "", "name": "214.9.125.189.static.impsat.net.br", "country": "BR", "region": "", "ISP": "Level 3 Communications, Inc.", "longitude": "-43.21920", "AS": 3549, "ip": "189.125.9.214", "latitude": "-22.83050", "type": "router"}, {"city": "Los Angeles", "name": "192.16.48.200", "country": "US", "region": "California", "ISP": "MCI Communications Services, Inc. d/b/a Verizon Business", "longitude": "-118.29870", "AS": 15133, "ip": "192.16.48.200", "latitude": "33.78660", "type": "server"}, {"city": "", "name": "planetlab1.pop-mg.rnp.br", "country": "BR", "region": "", "ISP": "Associa\u00e7\u00e3o Rede Nacional de Ensino e Pesquisa", "longitude": "-43.21920", "AS": 1916, "ip": "200.19.159.34", "latitude": "-22.83050", "type": "client"}, {"city": "Lowell", "name": "planetlab1.cs.uml.edu", "country": "United States", "region": "Massachusetts", "ISP": "University of Massachusetts - Lowell", "longitude": "-71.35060", "AS": 46905, "ip": "129.63.159.101", "latitude": "42.65230", "type": "client"}, {"city": "New Brunswick", "name": "planetlab2.rutgers.edu", "country": "United States", "region": "New Jersey", "ISP": "Rutgers University", "longitude": "-74.42890", "AS": 46, "ip": "165.230.49.115", "latitude": "40.50320", "type": "client"}, {"city": "Highland Park", "name": "165.230.49.113", "country": "United States", "region": "New Jersey", "ISP": "Rutgers University", "longitude": "-74.42890", "AS": 46, "ip": "165.230.49.113", "latitude": "40.50320", "type": "router"}, {"city": "Moscow", "name": "63.65.75.237", "country": "United States", "region": "Pennsylvania", "ISP": "MCI Communications Services, Inc. d/b/a Verizon Business", "longitude": "-75.53950", "AS": 701, "ip": "63.65.75.237", "latitude": "41.31200", "type": "router"}, {"city": "Philadelphia", "name": "Edgecast.com.customer.alter.net", "country": "US", "region": "Pennsylvania", "ISP": "MCI Communications Services, Inc. d/b/a Verizon Business", "longitude": "-75.19680", "AS": 701, "ip": "63.65.186.50", "latitude": "39.95970", "type": "router"}, {"city": "Philadelphia", "name": "Edgecast.com.customer.alter.net", "country": "US", "region": "Pennsylvania", "ISP": "MCI Communications Services, Inc. d/b/a Verizon Business", "longitude": "-75.19680", "AS": 701, "ip": "63.65.186.26", "latitude": "39.95970", "type": "router"}, {"city": "Philadelphia", "name": "Edgecast.com.customer.alter.net", "country": "US", "region": "Pennsylvania", "ISP": "MCI Communications Services, Inc. d/b/a Verizon Business", "longitude": "-75.19680", "AS": 701, "ip": "63.65.186.54", "latitude": "39.95970", "type": "router"}, {"city": "Philadelphia", "name": "Edgecast.com.customer.alter.net", "country": "US", "region": "Pennsylvania", "ISP": "MCI Communications Services, Inc. d/b/a Verizon Business", "longitude": "-75.19680", "AS": 701, "ip": "63.65.186.2", "latitude": "39.95970", "type": "router"}, {"city": "", "name": "Edgecast.com.customer.alter.net", "country": "", "region": "", "ISP": "MCI Communications Services, Inc. d/b/a Verizon Business", "longitude": "-75.19680", "AS": 701, "ip": "63.65.186.66", "latitude": "39.95970", "type": "router"}, {"city": "Philadelphia", "name": "Edgecast.com.customer.alter.net", "country": "US", "region": "Pennsylvania", "ISP": "MCI Communications Services, Inc. d/b/a Verizon Business", "longitude": "-75.19680", "AS": 701, "ip": "63.65.186.14", "latitude": "39.95970", "type": "router"}, {"city": "Highland Park", "name": "planetlab3.rutgers.edu", "country": "United States", "region": "New Jersey", "ISP": "Rutgers University", "longitude": "-74.42890", "AS": 46, "ip": "165.230.49.118", "latitude": "40.50320", "type": "client"}, {"city": "Philadelphia", "name": "Edgecast.com.customer.alter.net", "country": "United States", "region": "Pennsylvania", "ISP": "MCI Communications Services, Inc. d/b/a Verizon Business", "longitude": "-75.19680", "AS": 701, "ip": "63.65.186.6", "latitude": "39.95970", "type": "router"}, {"city": "Waterloo", "name": "plink.cs.uwaterloo.ca", "country": "Canada", "region": "Ontario", "ISP": "University of Waterloo", "longitude": "-80.54540", "AS": 12093, "ip": "129.97.74.12", "latitude": "43.47150", "type": "client"}, {"city": "Waterloo", "name": "dc3558-cs2-csnet.uwaterloo.ca", "country": "CA", "region": "Ontario", "ISP": "University of Waterloo", "longitude": "-80.54540", "AS": 12093, "ip": "129.97.74.1", "latitude": "43.47150", "type": "router"}, {"city": "Oshawa", "name": "216-191-167-37.dedicated.allstream.net", "country": "Canada", "region": "Ontario", "ISP": "Allstream Corp.", "longitude": "-78.84950", "AS": 15290, "ip": "216.191.167.37", "latitude": "43.90000", "type": "router"}, {"city": "Cleveland", "name": "planetlab-5.eecs.cwru.edu", "country": "US", "region": "Ohio", "ISP": "Case Western Reserve University", "longitude": "-81.60530", "AS": 32666, "ip": "129.22.150.78", "latitude": "41.50740", "type": "client"}, {"city": "Cleveland", "name": "129.22.150.2", "country": "US", "region": "Ohio", "ISP": "Case Western Reserve University", "longitude": "-81.60530", "AS": 32666, "ip": "129.22.150.2", "latitude": "41.50740", "type": "router"}, {"city": "Avon", "name": "clevs-r5-xe-2-2-0s445.core.oar.net", "country": "US", "region": "Ohio", "ISP": "OARnet", "longitude": "-82.01860", "AS": 600, "ip": "199.18.156.65", "latitude": "41.44850", "type": "router"}, {"city": "Ann Arbor", "name": "et-9-0-0.1240.rtr.ashb.net.internet2.edu", "country": "US", "region": "Michigan", "ISP": "Internet2", "longitude": "-83.71330", "AS": 11164, "ip": "64.57.29.173", "latitude": "42.27340", "type": "router"}, {"city": "Ann Arbor", "name": "198.71.47.249", "country": "United States", "region": "Michigan", "ISP": "Internet2", "longitude": "-83.71330", "AS": 11164, "ip": "198.71.47.249", "latitude": "42.27340", "type": "router"}, {"city": "Ashburn", "name": "152.195.64.133", "country": "United States", "region": "Virginia", "ISP": "MCI Communications Services, Inc. d/b/a Verizon Business", "longitude": "-77.53900", "AS": 15133, "ip": "152.195.64.133", "latitude": "39.01800", "type": "router"}, {"city": "Providence", "name": "pluto.cs.brown.edu", "country": "US", "region": "Rhode Island", "ISP": "Brown University", "longitude": "-71.39770", "AS": 11078, "ip": "192.91.235.230", "latitude": "41.82670", "type": "client"}, {"city": "", "name": "commodus-nonbrown.cs.brown.edu", "country": "", "region": "", "ISP": "Brown University", "longitude": "-71.39770", "AS": 11078, "ip": "192.91.235.238", "latitude": "41.82670", "type": "router"}, {"city": "Providence", "name": "138.16.160.253", "country": "US", "region": "Rhode Island", "ISP": "Brown University", "longitude": "-71.39770", "AS": 11078, "ip": "138.16.160.253", "latitude": "41.82670", "type": "router"}, {"city": "Providence", "name": "lsb-inet-r-230.net.brown.edu", "country": "US", "region": "Rhode Island", "ISP": "Brown University", "longitude": "-71.39770", "AS": 11078, "ip": "128.148.230.6", "latitude": "41.82670", "type": "router"}, {"city": "North Kingstown", "name": "131.109.200.1", "country": "US", "region": "Rhode Island", "ISP": "Rhode Island Network for Educ. Technology", "longitude": "-71.46230", "AS": 14464, "ip": "131.109.200.1", "latitude": "41.58770", "type": "router"}, {"city": "West Warwick", "name": "rtr1.osh300bent.mgmt.oshean.org", "country": "US", "region": "Rhode Island", "ISP": "OSHEAN, Inc.", "longitude": "-71.52540", "AS": 14325, "ip": "198.7.224.105", "latitude": "41.69700", "type": "router"}, {"city": "Stoneham", "name": "xe-4-3-0.bar1.Boston1.Level3.net", "country": "US", "region": "Massachusetts", "ISP": "Level 3 Communications, Inc.", "longitude": "-71.09820", "AS": 3356, "ip": "4.53.54.21", "latitude": "42.47300", "type": "router"}, {"city": "Boston", "name": "192.229.244.252", "country": "US", "region": "Massachusetts", "ISP": "MCI Communications Services, Inc. d/b/a Verizon Business", "longitude": "-71.05980", "AS": 15133, "ip": "192.229.244.252", "latitude": "42.35840", "type": "router"}, {"city": "Waterloo", "name": "plonk.cs.uwaterloo.ca", "country": "CA", "region": "Ontario", "ISP": "University of Waterloo", "longitude": "-80.54540", "AS": 12093, "ip": "129.97.74.14", "latitude": "43.47150", "type": "client"}, {"city": "Tampa", "name": "planetlab1.csee.usf.edu", "country": "US", "region": "Florida", "ISP": "UNIVERSITY OF SOUTH FLORIDA", "longitude": "-82.41280", "AS": 5661, "ip": "131.247.2.241", "latitude": "28.06310", "type": "client"}, {"city": "Tampa", "name": "131.247.3.246", "country": "US", "region": "Florida", "ISP": "UNIVERSITY OF SOUTH FLORIDA", "longitude": "-82.41280", "AS": 5661, "ip": "131.247.3.246", "latitude": "28.06310", "type": "router"}, {"city": "Tampa", "name": "vlan254.campus-backbone1.net.usf.edu", "country": "US", "region": "Florida", "ISP": "UNIVERSITY OF SOUTH FLORIDA", "longitude": "-82.41280", "AS": 5661, "ip": "131.247.254.45", "latitude": "28.06310", "type": "router"}, {"city": "Tampa", "name": "Vlan257.wan2.net.usf.edu", "country": "US", "region": "Florida", "ISP": "UNIVERSITY OF SOUTH FLORIDA", "longitude": "-82.41280", "AS": 5661, "ip": "131.247.254.242", "latitude": "28.06310", "type": "router"}, {"city": "Gainesville", "name": "flrnetcp-flrcore-108-59-27-196.rtr.net.flrnet.org", "country": "US", "region": "Florida", "ISP": "FloridaNet", "longitude": "-82.32480", "AS": 11096, "ip": "108.59.27.196", "latitude": "29.65160", "type": "router"}, {"city": "Gainesville", "name": "mia-flrcore-asr9010-1-hu0600-1.net.flrnet.org", "country": "US", "region": "Florida", "ISP": "FloridaNet", "longitude": "-82.32480", "AS": 11096, "ip": "108.59.31.154", "latitude": "29.65160", "type": "router"}, {"city": "Tampa", "name": "ten0-1-0-0-256.wan1.net.usf.edu", "country": "US", "region": "Florida", "ISP": "UNIVERSITY OF SOUTH FLORIDA", "longitude": "-82.41280", "AS": 5661, "ip": "131.247.254.81", "latitude": "28.06310", "type": "router"}, {"city": "Tampa", "name": "vlan254.campus-backbone2.net.usf.edu", "country": "US", "region": "Florida", "ISP": "UNIVERSITY OF SOUTH FLORIDA", "longitude": "-82.41280", "AS": 5661, "ip": "131.247.254.46", "latitude": "28.06310", "type": "router"}, {"city": "Tampa", "name": "ten1-4.wan2.net.usf.edu", "country": "US", "region": "Florida", "ISP": "UNIVERSITY OF SOUTH FLORIDA", "longitude": "-82.41280", "AS": 5661, "ip": "131.247.254.230", "latitude": "28.06310", "type": "router"}, {"city": "Pittsburgh", "name": "128.2.57.73", "country": "US", "region": "Pennsylvania", "ISP": "Carnegie Mellon University", "longitude": "-79.95610", "AS": 9, "ip": "128.2.57.73", "latitude": "40.44390", "type": "server"}, {"city": "Pittsburgh", "name": "POD-A-VL57.GW.CMU.NET", "country": "US", "region": "Pennsylvania", "ISP": "Carnegie Mellon University", "longitude": "-79.95610", "AS": 9, "ip": "128.2.56.1", "latitude": "40.44390", "type": "router"}, {"city": "Pittsburgh", "name": "CORE0-POD-A.GW.CMU.NET", "country": "US", "region": "Pennsylvania", "ISP": "Carnegie Mellon University", "longitude": "-79.95610", "AS": 9, "ip": "128.2.0.153", "latitude": "40.44390", "type": "router"}, {"city": "", "name": "pod-i-dcns-core0.gw.cmu.net", "country": "", "region": "", "ISP": "Carnegie Mellon University", "longitude": "-79.95610", "AS": 9, "ip": "128.2.0.194", "latitude": "40.44390", "type": "router"}, {"city": "", "name": "ae-0.520.rtr01.acma.net.pennren.net", "country": "", "region": "", "ISP": "KINBER", "longitude": "-79.71770", "AS": 14877, "ip": "162.223.18.42", "latitude": "40.31780", "type": "router"}, {"city": "", "name": "tr-cps.pennren.3rox.net", "country": "", "region": "", "ISP": "Pittsburgh Supercomputing Center", "longitude": "-79.95610", "AS": 5050, "ip": "147.73.18.143", "latitude": "40.44390", "type": "router"}, {"city": "Ann Arbor", "name": "et-7-0-0.513.rtr.eqch.net.internet2.edu", "country": "US", "region": "Michigan", "ISP": "Internet2", "longitude": "-83.71330", "AS": 11164, "ip": "198.71.47.183", "latitude": "42.27340", "type": "router"}, {"city": "Pittsburgh", "name": "Andals-MBP.wv.cc.cmu.edu", "country": "US", "region": "Pennsylvania", "ISP": "Carnegie Mellon University", "longitude": "-79.95610", "AS": 9, "ip": "128.237.167.95", "latitude": "40.44390", "type": "router"}, {"city": "Pittsburgh", "name": "pod-w-vl76.gw.cmu.net", "country": "United States", "region": "Pennsylvania", "ISP": "Carnegie Mellon University", "longitude": "-79.95610", "AS": 9, "ip": "128.237.160.1", "latitude": "40.44390", "type": "router"}, {"city": "Pittsburgh", "name": "core255-pod-w-cyh.gw.cmu.net", "country": "United States", "region": "Pennsylvania", "ISP": "Carnegie Mellon University", "longitude": "-79.95610", "AS": 9, "ip": "128.2.255.241", "latitude": "40.44390", "type": "router"}, {"city": "", "name": "pod-i-dcns-core255.gw.cmu.net", "country": "", "region": "", "ISP": "Carnegie Mellon University", "longitude": "-79.95610", "AS": 9, "ip": "128.2.255.194", "latitude": "40.44390", "type": "router"}], "links": [{"source": 11, "group": "inter", "target": 10}, {"source": 11, "group": "inter", "target": 16}, {"source": 11, "group": "inter", "target": 28}, {"source": 11, "group": "inter", "target": 36}, {"source": 11, "group": "inter", "target": 51}, {"source": 11, "group": "inter", "target": 67}, {"source": 11, "group": "inter", "target": 76}, {"source": 11, "group": "inter", "target": 89}, {"source": 1, "group": "inter", "target": 0}, {"source": 1, "group": "inter", "target": 2}, {"source": 1, "group": "inter", "target": 29}, {"source": 2, "group": "inter", "target": 3}, {"source": 4, "group": "inter", "target": 3}, {"source": 4, "group": "inter", "target": 5}, {"source": 5, "group": "inter", "target": 6}, {"source": 7, "group": "inter", "target": 6}, {"source": 7, "group": "inter", "target": 8}, {"source": 8, "group": "inter", "target": 34}, {"source": 9, "group": "inter", "target": 8}, {"source": 9, "group": "inter", "target": 10}, {"source": 9, "group": "inter", "target": 39}, {"source": 12, "group": "inter", "target": 13}, {"source": 14, "group": "inter", "target": 13}, {"source": 14, "group": "inter", "target": 15}, {"source": 16, "group": "inter", "target": 15}, {"source": 18, "group": "inter", "target": 17}, {"source": 19, "group": "inter", "target": 18}, {"source": 20, "group": "inter", "target": 19}, {"source": 20, "group": "inter", "target": 21}, {"source": 22, "group": "inter", "target": 21}, {"source": 23, "group": "inter", "target": 22}, {"source": 23, "group": "inter", "target": 24}, {"source": 25, "group": "inter", "target": 24}, {"source": 25, "group": "inter", "target": 26}, {"source": 27, "group": "inter", "target": 26}, {"source": 27, "group": "inter", "target": 27}, {"source": 27, "group": "inter", "target": 28}, {"source": 30, "group": "inter", "target": 4}, {"source": 30, "group": "inter", "target": 31}, {"source": 32, "group": "inter", "target": 31}, {"source": 32, "group": "inter", "target": 38}, {"source": 33, "group": "inter", "target": 32}, {"source": 33, "group": "inter", "target": 34}, {"source": 35, "group": "inter", "target": 8}, {"source": 35, "group": "inter", "target": 36}, {"source": 40, "group": "inter", "target": 41}, {"source": 42, "group": "inter", "target": 41}, {"source": 42, "group": "inter", "target": 43}, {"source": 44, "group": "inter", "target": 43}, {"source": 45, "group": "inter", "target": 44}, {"source": 46, "group": "inter", "target": 45}, {"source": 46, "group": "inter", "target": 47}, {"source": 48, "group": "inter", "target": 47}, {"source": 49, "group": "inter", "target": 48}, {"source": 49, "group": "inter", "target": 50}, {"source": 49, "group": "inter", "target": 97}, {"source": 49, "group": "inter", "target": 98}, {"source": 50, "group": "inter", "target": 51}, {"source": 53, "group": "inter", "target": 52}, {"source": 53, "group": "inter", "target": 54}, {"source": 55, "group": "inter", "target": 54}, {"source": 55, "group": "inter", "target": 56}, {"source": 56, "group": "inter", "target": 57}, {"source": 58, "group": "inter", "target": 57}, {"source": 59, "group": "inter", "target": 58}, {"source": 59, "group": "inter", "target": 60}, {"source": 59, "group": "inter", "target": 65}, {"source": 61, "group": "inter", "target": 60}, {"source": 61, "group": "inter", "target": 62}, {"source": 61, "group": "inter", "target": 64}, {"source": 61, "group": "inter", "target": 65}, {"source": 62, "group": "inter", "target": 11}, {"source": 67, "group": "inter", "target": 66}, {"source": 67, "group": "inter", "target": 93}, {"source": 69, "group": "inter", "target": 68}, {"source": 69, "group": "inter", "target": 70}, {"source": 69, "group": "inter", "target": 77}, {"source": 70, "group": "inter", "target": 71}, {"source": 72, "group": "inter", "target": 71}, {"source": 72, "group": "inter", "target": 73}, {"source": 74, "group": "inter", "target": 73}, {"source": 74, "group": "inter", "target": 75}, {"source": 75, "group": "inter", "target": 76}, {"source": 79, "group": "inter", "target": 78}, {"source": 80, "group": "inter", "target": 79}, {"source": 81, "group": "inter", "target": 80}, {"source": 81, "group": "inter", "target": 82}, {"source": 83, "group": "inter", "target": 82}, {"source": 83, "group": "inter", "target": 84}, {"source": 84, "group": "inter", "target": 85}, {"source": 85, "group": "inter", "target": 86}, {"source": 87, "group": "inter", "target": 86}, {"source": 88, "group": "inter", "target": 87}, {"source": 88, "group": "inter", "target": 89}, {"source": 91, "group": "inter", "target": 90}, {"source": 91, "group": "inter", "target": 92}, {"source": 92, "group": "inter", "target": 57}, {"source": 63, "group": "inter", "target": 58}, {"source": 63, "group": "inter", "target": 65}, {"source": 63, "group": "inter", "target": 60}, {"source": 64, "group": "inter", "target": 63}, {"source": 64, "group": "inter", "target": 59}, {"source": 94, "group": "inter", "target": 41}, {"source": 95, "group": "inter", "target": 44}, {"source": 96, "group": "inter", "target": 95}, {"source": 96, "group": "inter", "target": 97}, {"source": 99, "group": "inter", "target": 98}, {"source": 99, "group": "inter", "target": 51}, {"source": 37, "group": "inter", "target": 4}, {"source": 37, "group": "inter", "target": 38}, {"source": 39, "group": "inter", "target": 34}, {"source": 101, "group": "inter", "target": 100}, {"source": 101, "group": "inter", "target": 102}, {"source": 101, "group": "inter", "target": 144}, {"source": 101, "group": "inter", "target": 151}, {"source": 102, "group": "inter", "target": 103}, {"source": 104, "group": "inter", "target": 103}, {"source": 105, "group": "inter", "target": 104}, {"source": 105, "group": "inter", "target": 106}, {"source": 105, "group": "inter", "target": 130}, {"source": 105, "group": "inter", "target": 155}, {"source": 108, "group": "inter", "target": 107}, {"source": 108, "group": "inter", "target": 146}, {"source": 109, "group": "inter", "target": 108}, {"source": 110, "group": "inter", "target": 109}, {"source": 110, "group": "inter", "target": 111}, {"source": 112, "group": "inter", "target": 111}, {"source": 112, "group": "inter", "target": 106}, {"source": 113, "group": "inter", "target": 114}, {"source": 114, "group": "inter", "target": 115}, {"source": 116, "group": "inter", "target": 115}, {"source": 117, "group": "inter", "target": 116}, {"source": 117, "group": "inter", "target": 106}, {"source": 119, "group": "inter", "target": 118}, {"source": 119, "group": "inter", "target": 120}, {"source": 119, "group": "inter", "target": 145}, {"source": 120, "group": "inter", "target": 121}, {"source": 122, "group": "inter", "target": 121}, {"source": 123, "group": "inter", "target": 122}, {"source": 123, "group": "inter", "target": 124}, {"source": 125, "group": "inter", "target": 124}, {"source": 125, "group": "inter", "target": 106}, {"source": 125, "group": "inter", "target": 112}, {"source": 125, "group": "inter", "target": 150}, {"source": 127, "group": "inter", "target": 126}, {"source": 128, "group": "inter", "target": 127}, {"source": 128, "group": "inter", "target": 129}, {"source": 130, "group": "inter", "target": 129}, {"source": 131, "group": "inter", "target": 132}, {"source": 132, "group": "inter", "target": 133}, {"source": 134, "group": "inter", "target": 133}, {"source": 134, "group": "inter", "target": 135}, {"source": 136, "group": "inter", "target": 135}, {"source": 136, "group": "inter", "target": 137}, {"source": 137, "group": "inter", "target": 138}, {"source": 139, "group": "inter", "target": 138}, {"source": 139, "group": "inter", "target": 106}, {"source": 140, "group": "inter", "target": 141}, {"source": 142, "group": "inter", "target": 141}, {"source": 142, "group": "inter", "target": 143}, {"source": 143, "group": "inter", "target": 106}, {"source": 147, "group": "inter", "target": 141}, {"source": 148, "group": "inter", "target": 141}, {"source": 149, "group": "inter", "target": 141}, {"source": 149, "group": "inter", "target": 150}, {"source": 153, "group": "inter", "target": 152}, {"source": 153, "group": "inter", "target": 154}, {"source": 154, "group": "inter", "target": 155}, {"source": 156, "group": "inter", "target": 141}, {"source": 157, "group": "inter", "target": 158}, {"source": 159, "group": "inter", "target": 158}, {"source": 159, "group": "inter", "target": 160}, {"source": 161, "group": "inter", "target": 160}, {"source": 161, "group": "inter", "target": 162}, {"source": 162, "group": "inter", "target": 163}, {"source": 164, "group": "inter", "target": 163}, {"source": 164, "group": "inter", "target": 170}, {"source": 164, "group": "inter", "target": 180}, {"source": 165, "group": "inter", "target": 164}, {"source": 165, "group": "inter", "target": 166}, {"source": 165, "group": "inter", "target": 180}, {"source": 168, "group": "inter", "target": 167}, {"source": 168, "group": "inter", "target": 169}, {"source": 168, "group": "inter", "target": 171}, {"source": 168, "group": "inter", "target": 179}, {"source": 169, "group": "inter", "target": 170}, {"source": 173, "group": "inter", "target": 172}, {"source": 173, "group": "inter", "target": 174}, {"source": 175, "group": "inter", "target": 174}, {"source": 175, "group": "inter", "target": 176}, {"source": 176, "group": "inter", "target": 177}, {"source": 177, "group": "inter", "target": 178}, {"source": 178, "group": "inter", "target": 166}, {"source": 181, "group": "inter", "target": 182}, {"source": 183, "group": "inter", "target": 182}, {"source": 183, "group": "inter", "target": 184}, {"source": 183, "group": "inter", "target": 189}, {"source": 184, "group": "inter", "target": 185}, {"source": 185, "group": "inter", "target": 203}, {"source": 186, "group": "inter", "target": 185}, {"source": 186, "group": "inter", "target": 187}, {"source": 187, "group": "inter", "target": 188}, {"source": 191, "group": "inter", "target": 190}, {"source": 192, "group": "inter", "target": 191}, {"source": 193, "group": "inter", "target": 192}, {"source": 193, "group": "inter", "target": 194}, {"source": 193, "group": "inter", "target": 199}, {"source": 195, "group": "inter", "target": 194}, {"source": 195, "group": "inter", "target": 196}, {"source": 195, "group": "inter", "target": 199}, {"source": 195, "group": "inter", "target": 201}, {"source": 196, "group": "inter", "target": 197}, {"source": 197, "group": "inter", "target": 226}, {"source": 198, "group": "inter", "target": 197}, {"source": 198, "group": "inter", "target": 188}, {"source": 202, "group": "inter", "target": 182}, {"source": 189, "group": "inter", "target": 185}, {"source": 204, "group": "inter", "target": 203}, {"source": 204, "group": "inter", "target": 188}, {"source": 206, "group": "inter", "target": 205}, {"source": 206, "group": "inter", "target": 207}, {"source": 206, "group": "inter", "target": 210}, {"source": 206, "group": "inter", "target": 211}, {"source": 207, "group": "inter", "target": 208}, {"source": 209, "group": "inter", "target": 208}, {"source": 209, "group": "inter", "target": 197}, {"source": 209, "group": "inter", "target": 231}, {"source": 211, "group": "inter", "target": 212}, {"source": 212, "group": "inter", "target": 208}, {"source": 213, "group": "inter", "target": 197}, {"source": 213, "group": "inter", "target": 188}, {"source": 215, "group": "inter", "target": 214}, {"source": 215, "group": "inter", "target": 216}, {"source": 217, "group": "inter", "target": 216}, {"source": 217, "group": "inter", "target": 218}, {"source": 218, "group": "inter", "target": 188}, {"source": 219, "group": "inter", "target": 220}, {"source": 221, "group": "inter", "target": 220}, {"source": 222, "group": "inter", "target": 221}, {"source": 222, "group": "inter", "target": 223}, {"source": 223, "group": "inter", "target": 224}, {"source": 224, "group": "inter", "target": 225}, {"source": 225, "group": "inter", "target": 226}, {"source": 227, "group": "inter", "target": 228}, {"source": 229, "group": "inter", "target": 228}, {"source": 229, "group": "inter", "target": 230}, {"source": 230, "group": "inter", "target": 231}, {"source": 200, "group": "inter", "target": 199}, {"source": 200, "group": "inter", "target": 196}, {"source": 200, "group": "inter", "target": 201}, {"source": 200, "group": "inter", "target": 194}, {"source": 233, "group": "inter", "target": 232}, {"source": 233, "group": "inter", "target": 242}, {"source": 234, "group": "inter", "target": 233}, {"source": 234, "group": "inter", "target": 235}, {"source": 235, "group": "inter", "target": 236}, {"source": 236, "group": "inter", "target": 237}, {"source": 237, "group": "inter", "target": 238}, {"source": 238, "group": "inter", "target": 239}, {"source": 240, "group": "inter", "target": 239}, {"source": 241, "group": "inter", "target": 240}, {"source": 241, "group": "inter", "target": 188}, {"source": 201, "group": "inter", "target": 197}, {"source": 243, "group": "inter", "target": 244}, {"source": 251, "group": "inter", "target": 250}, {"source": 251, "group": "inter", "target": 284}, {"source": 245, "group": "inter", "target": 244}, {"source": 246, "group": "inter", "target": 245}, {"source": 246, "group": "inter", "target": 247}, {"source": 247, "group": "inter", "target": 248}, {"source": 249, "group": "inter", "target": 248}, {"source": 249, "group": "inter", "target": 250}, {"source": 252, "group": "inter", "target": 253}, {"source": 253, "group": "inter", "target": 254}, {"source": 255, "group": "inter", "target": 254}, {"source": 256, "group": "inter", "target": 255}, {"source": 257, "group": "inter", "target": 256}, {"source": 257, "group": "intra", "target": 251}, {"source": 257, "group": "inter", "target": 267}, {"source": 257, "group": "inter", "target": 323}, {"source": 260, "group": "inter", "target": 259}, {"source": 260, "group": "inter", "target": 261}, {"source": 262, "group": "inter", "target": 261}, {"source": 263, "group": "inter", "target": 262}, {"source": 263, "group": "inter", "target": 264}, {"source": 265, "group": "inter", "target": 264}, {"source": 266, "group": "inter", "target": 265}, {"source": 266, "group": "inter", "target": 267}, {"source": 268, "group": "inter", "target": 269}, {"source": 268, "group": "inter", "target": 270}, {"source": 269, "group": "inter", "target": 270}, {"source": 271, "group": "inter", "target": 270}, {"source": 271, "group": "inter", "target": 272}, {"source": 272, "group": "inter", "target": 273}, {"source": 273, "group": "inter", "target": 251}, {"source": 275, "group": "inter", "target": 274}, {"source": 275, "group": "inter", "target": 285}, {"source": 276, "group": "inter", "target": 275}, {"source": 276, "group": "inter", "target": 277}, {"source": 276, "group": "inter", "target": 281}, {"source": 277, "group": "inter", "target": 278}, {"source": 279, "group": "inter", "target": 278}, {"source": 279, "group": "inter", "target": 280}, {"source": 279, "group": "inter", "target": 283}, {"source": 279, "group": "inter", "target": 282}, {"source": 279, "group": "inter", "target": 284}, {"source": 280, "group": "inter", "target": 251}, {"source": 283, "group": "inter", "target": 251}, {"source": 287, "group": "inter", "target": 286}, {"source": 287, "group": "inter", "target": 288}, {"source": 288, "group": "inter", "target": 289}, {"source": 289, "group": "inter", "target": 290}, {"source": 291, "group": "inter", "target": 290}, {"source": 291, "group": "inter", "target": 292}, {"source": 292, "group": "inter", "target": 293}, {"source": 293, "group": "inter", "target": 294}, {"source": 294, "group": "inter", "target": 295}, {"source": 295, "group": "inter", "target": 296}, {"source": 295, "group": "inter", "target": 298}, {"source": 297, "group": "inter", "target": 296}, {"source": 297, "group": "inter", "target": 251}, {"source": 297, "group": "inter", "target": 298}, {"source": 300, "group": "inter", "target": 299}, {"source": 300, "group": "inter", "target": 308}, {"source": 301, "group": "inter", "target": 300}, {"source": 301, "group": "inter", "target": 302}, {"source": 301, "group": "inter", "target": 299}, {"source": 303, "group": "inter", "target": 302}, {"source": 303, "group": "inter", "target": 304}, {"source": 305, "group": "inter", "target": 304}, {"source": 306, "group": "inter", "target": 305}, {"source": 306, "group": "inter", "target": 307}, {"source": 309, "group": "inter", "target": 269}, {"source": 309, "group": "inter", "target": 270}, {"source": 311, "group": "inter", "target": 310}, {"source": 311, "group": "inter", "target": 312}, {"source": 311, "group": "inter", "target": 319}, {"source": 313, "group": "inter", "target": 312}, {"source": 313, "group": "inter", "target": 251}, {"source": 314, "group": "inter", "target": 312}, {"source": 314, "group": "inter", "target": 251}, {"source": 322, "group": "inter", "target": 321}, {"source": 322, "group": "inter", "target": 323}, {"source": 322, "group": "inter", "target": 338}, {"source": 325, "group": "inter", "target": 324}, {"source": 325, "group": "inter", "target": 326}, {"source": 326, "group": "inter", "target": 327}, {"source": 328, "group": "inter", "target": 327}, {"source": 329, "group": "inter", "target": 328}, {"source": 329, "group": "inter", "target": 251}, {"source": 330, "group": "inter", "target": 331}, {"source": 332, "group": "inter", "target": 331}, {"source": 332, "group": "inter", "target": 330}, {"source": 333, "group": "inter", "target": 332}, {"source": 333, "group": "inter", "target": 334}, {"source": 334, "group": "inter", "target": 335}, {"source": 335, "group": "inter", "target": 336}, {"source": 337, "group": "inter", "target": 336}, {"source": 337, "group": "inter", "target": 251}, {"source": 281, "group": "inter", "target": 278}, {"source": 282, "group": "inter", "target": 251}, {"source": 338, "group": "inter", "target": 323}, {"source": 339, "group": "inter", "target": 340}, {"source": 341, "group": "inter", "target": 340}, {"source": 341, "group": "inter", "target": 345}, {"source": 342, "group": "inter", "target": 341}, {"source": 342, "group": "inter", "target": 346}, {"source": 343, "group": "inter", "target": 342}, {"source": 343, "group": "inter", "target": 344}, {"source": 343, "group": "inter", "target": 345}, {"source": 343, "group": "inter", "target": 347}, {"source": 343, "group": "inter", "target": 343}, {"source": 344, "group": "inter", "target": 344}, {"source": 344, "group": "inter", "target": 251}, {"source": 344, "group": "inter", "target": 347}, {"source": 258, "group": "inter", "target": 256}, {"source": 258, "group": "intra", "target": 251}, {"source": 316, "group": "inter", "target": 312}, {"source": 316, "group": "inter", "target": 251}, {"source": 346, "group": "inter", "target": 340}, {"source": 346, "group": "inter", "target": 345}, {"source": 347, "group": "inter", "target": 342}, {"source": 347, "group": "inter", "target": 345}, {"source": 320, "group": "inter", "target": 312}, {"source": 320, "group": "inter", "target": 251}, {"source": 315, "group": "inter", "target": 312}, {"source": 315, "group": "inter", "target": 251}, {"source": 318, "group": "inter", "target": 312}, {"source": 318, "group": "inter", "target": 251}, {"source": 317, "group": "inter", "target": 312}, {"source": 317, "group": "inter", "target": 251}, {"source": 349, "group": "inter", "target": 348}, {"source": 350, "group": "inter", "target": 349}, {"source": 350, "group": "inter", "target": 351}, {"source": 351, "group": "inter", "target": 352}, {"source": 353, "group": "inter", "target": 352}, {"source": 353, "group": "inter", "target": 354}, {"source": 354, "group": "intra", "target": 256}, {"source": 356, "group": "intra", "target": 355}, {"source": 357, "group": "intra", "target": 356}, {"source": 358, "group": "intra", "target": 357}, {"source": 358, "group": "inter", "target": 352}]}